name,website,guestbunks,hutname,pppn,dryingroom,gridref,location,lat,lng,caveclub,cave
ABMSAC-Association of British Members of the Swiss Alpine Club,,,George Starkey,11,TRUE,NY 396160,"Patterdale, Patterdale, Cumbria",54.536333,-2.9378416,FALSE,FALSE
Barrow Mountaineering & Ski Club,,,Coppermines Cottage,8,FALSE,SD 289986,"Coppermines Valley, CONISTON, Cumbria, LA21 8HP",54.3779,-3.094783,FALSE,FALSE
Brathay Hall Trust,,,Shackleton Lodge,POA Sole occupancy,TRUE,NY 366027,"Shackleton Lodge, Brathay Hall, Ambleside Cumbria, LA22 0HP","54.416211,-2.9782001",-2.9782001,FALSE,FALSE
Carlisle Mountaineering Club,,,Newlands,7,FALSE,NY 229177,"Newlands Valley, Cumbria",54.548531,-3.19279,FALSE,FALSE
Cleveland Mountaineering Club,,,Agnes Spencer Memorial Hut,8,TRUE,NY 391162,"Patterdale, Ullswater",54.537544,-2.9423531,FALSE,FALSE
Fylde Mountaineering Club,,,Stair Hut,POA Sole occupancy,TRUE,NY 237210,"Stair Hut, Stair, KESWICK, Cumbria, CA12 5UF",54.579005,-3.1816129,FALSE,FALSE
K Fellfarers,,,High House,POA Sole occupancy,TRUE,NY 235119,"High House, Borrowdale, KESWICK, Cumbria, CA12 5XJ",54.496835,-3.1816832,FALSE,FALSE
Lancashire Caving & Climbing Club,www.lancashirecavingandclimbingclub.co.uk/,20,Tranearth,9,TRUE,SD 281957,"Tranearth, Torver, CONISTON, Cumbria, LA21 8BP",54.351177,-3.1077703,TRUE,FALSE
Lancashire Mountaineering Club,,,The Loft adjacent to Blea Tarn House,8,FALSE,NY 295048,"The Loft adjacent to Blea Tarn House, Little Langdale, AMBLESIDE, Cumbria,LA22 9PG",54.433925,-3.0883511,FALSE,FALSE
St Helens Mountaineering Club,,,Martin Brookman,8,FALSE,NY 235230,"Newlands Valley Road, Braithwaite, nr Keswick",54.596187,-3.1833496,FALSE,FALSE
Wayfarers Walking Club,,,Robertson Lamb,10,TRUE,NY 304067,"Raw Head, Great Langdale, AMBLESIDE, Cumbria, LA22 9JS",54.450766,-3.0745323,FALSE,FALSE
Yorkshire Mountaineering Club,,,"3 Irish Row, Coppermines Valley",8,TRUE,SD 292984,"3 Irish Row, Coppermines Valley, CONISTON, Cumbria, LA21 8HP",54.37673,-3.0913679,FALSE,FALSE
Yorkshire Ramblers Club,,12,Low Hall Garth,10,TRUE,NY 309029,"Low Hall Garth, Little Langdale, AMBLESIDE, Cumbria, LA22 9NT",54.416587,-3.0655791,TRUE,FALSE
Fylde Mountaineering Club,,,Little Langdale,POA Sole occupancy,TRUE,NY 315030,"2 New Houses, Little Langdale, AMBLESIDE, Cumbria, LA22 9PB",54.418089,-3.0558948,FALSE,FALSE
Rucksack Club,,,High Moss,15,FALSE,SD 23740 96681,"High Moss Cottage, Seathwaite, BROUGHTON-IN-FURNESS, Cumbria, LA20 6EE",54.359926,-3.1750353,FALSE,FALSE
Climbers' Club,,,R O Downes,12,FALSE,SK 249772,"Froggatt, Derbyshire",53.290761,-1.6278044,FALSE,FALSE
Derbyshire Pennine Club,thedpc.co.uk/hut,13,Carlswark Cottage,8,FALSE,SK 232755,"Stoney Middleton, Peak District, North Derbyshire, S32 4TN",53.090327,-4.0559473,TRUE,FALSE
Oread Mountaineering Club,,,Heathy Lea,8/6.5,FALSE,SK 273722,"One mile from Baslow, off main road A619 for Chesterfield, Close to Chatsworth, Birchen and Gardoms edges, Marked as Saw Mill on O.S. White Peak Map, Peak District",53.245362,-1.5938081,FALSE,FALSE
The British Mountaineering Council,,,Don Whillans Memorial Hut,8,FALSE,SK 007622,"Rockhall Cottage, The Roaches",53.156737,-1.9924588,FALSE,FALSE
Univ of London Mountaineering Club,,,Fallcliffe Cottage,9,FALSE,SK 240792,"Fall Cliff, Leam, Grindleford, HOPE VALLEY, Derbyshire, S32 2HL",53.308988,-1.6410006,FALSE,FALSE
An Teallach MC,,,Strawberry Cottage,6.5,TRUE,NH 13197 20648,"Strawberry Cottage, West end of Loch Affric, on north side of the river Affric, opposite Athnamulloch",57.238295,-5.0970338,FALSE,FALSE
Junior Mountaineering Club of Scotland,,,Coruisk Memorial,7.5,FALSE,NG 487197,"Loch Scavaig, ISLE OF SKYE",57.198957,-6.1620169,FALSE,FALSE
Mill Cottage Trust,,,Mill Cottage Trust,10,TRUE,NH 84694 04800,"Mill Cottage, Feshie Bridge, KINGUSSIE, Inverness-Shire",57.119624,-3.9059472,FALSE,FALSE
Mt Council of Scotland / BMC,,,Alex MacIntyre Memorial Hut,9,TRUE,NN 044612,"North Ballachulish, Onich, FORT WILLIAM, Inverness-Shire",56.700495,-5.1937743,FALSE,FALSE
Mt Council of Scotland / BMC,,,Glen Brittle Memorial Hut,10,TRUE,NG 412216,"Glenbrittle, Carbost, ISLE OF SKYE, IV47 8TA",57.211901,-6.2886569,FALSE,FALSE
Ochils Mountaineering Club,,,Inverardran Cottage,9,TRUE,NN 39190 25041,"Inverardran Cottage, CRIANLARICH, Perthshire, FK20 8QS",56.390195,-4.6065881,FALSE,FALSE
Climbers' Club,,,Bosigran Count House,12,TRUE,SW 422365,"Bosigran Farm, Pendeen, PENZANCE, Cornwall, TR20 8YX",50.172574,-5.6127389,FALSE,FALSE
Anabasis Mountaineering Club,,,Peter Llowarch Memorial Hut,5,FALSE,SH 700569,"Capel Curig, BETWS-Y-COED, Gwynedd",53.093546,-3.9430424,FALSE,FALSE
Bowline Climbing Club,,,Dinorwic Mill Cottage,10,FALSE,SH 563625,"Dinorwic Mill Cottage, Brynrefail, Llanberis, CAERNARFON, Gwynedd",53.141448,-4.1521356,FALSE,FALSE
Bromsgrove & Redditch Mt Club,,,Tremadog,POA,TRUE,SH 576405,"Tremadog, PORTHMADOG, Gwynedd",52.943333,-4.120558,FALSE,FALSE
Ceunant Mountaineering Club,,,Tyn Lon,10,TRUE,SH 608582,"Nant Peris, CAERNARFON, Gwynedd, LL55 4UF",53.103946,-4.0826567,FALSE,FALSE
Chester Mountaineering Club,,,Pen Ceunant Uchaf,7.5,TRUE,SH 581591,"Penceunant Uchaf, Llanberis, CAERNARFON, Gwynedd, LL55 4UW",53.109811,-4.1223373,FALSE,FALSE
Climbers' Club,,,Cwm Glas Mawr,12,FALSE,SH 619569,Llanberis Pass,53.091758,-4.0621217,FALSE,FALSE
Climbers' Club,,,Grange Old School House,12,FALSE,NY 251 176,"Grange, Borrowdale",54.54739,-3.1595745,FALSE,FALSE
Climbers' Club,,,Helyg Hostel,12,TRUE,SH 694601,"Helyg Hostel, Capel Curig, BETWS-Y-COED, Gwynedd, LL24 0EU",53.122602,-3.9567324,FALSE,FALSE
Climbers' Club,,,"R W Lloyd Hut, Ynys Ettws",12,TRUE,SH 624 568,Llanberis Pass,53.090327,-4.0559473,FALSE,FALSE
Clogwyn Mountaineering Club,,,The Old Stable,8,FALSE,SH 619428,"Croesor Valley, Tremadog, PORTHMADOG, Gwynedd",52.964665,-4.056532,FALSE,FALSE
Coventry Mountaineering Club,,,A T Reeve Memorial Hut,9,FALSE,SH 757078,"Aberderi, 3 Park Terrace, Corris, Machynlleth, Powys, SY20 9TD",52.65372,-3.8390602,FALSE,FALSE
Gloucestershire Mountaineering Club,,,Cefn Goch,8.5,TRUE,SH 583625,"Cefn Goch Farm, Gallt Y Foel, Deiniolen, CAERNARFON, Gwynedd, LL55 3EF",53.140817,-4.1191668,FALSE,FALSE
Gwydyr Mountain Club,,,Tan y Garth,9,TRUE,SH 737567,"Tan Y Garth, Capel Curig, BETWS-Y-COED, Gwynedd, LL24 0EB",53.092765,-3.8879134,FALSE,FALSE
Junior Mountaineering Club of Scotland,,,Glanafon,8,FALSE,SH 623667,"18 Glanafon Street, Bethesda, BANGOR, Gwynedd",53.18031,-4.0641694,FALSE,FALSE
Karabiner Mountaineering Club,,,Ty Powdwr,7,TRUE,SH 585609,"Dinorwic, Caernarfon, LL55 3ET",53.127183,-4.1156962,FALSE,FALSE
Lancashire Caving & Climbing Club,www.lancashirecavingandclimbingclub.co.uk/,11,Dan y Mynydd,9,FALSE,SH 684454,"Tanygrisiau, Nr. Blaenau Ffestiniog, Gwynedd, LL41 3ST",52.988454,-3.9618383,FALSE,FALSE
Lincoln Mountaineering Club,,,Ty Gwyn,8,FALSE,SH 580625,"Ty Gwyn, Deiniolen, CAERNARFON, Gwynedd",53.140787,-4.1242241,FALSE,FALSE
London Mountaineering Club,,,Fronwydyr,8,TRUE,SH 606588,"Fronwydyr, Nant Peris, CAERNARFON, Gwynedd, LL55 4UN",53.108261,-4.0848337,FALSE,FALSE
Merseyside Mountaineering Club,,,Cae'r Fran,7,TRUE,SH 570596,"Cae'r Fran, Capel Coch Road, Llanberis, CAERNARFON, Gwynedd, LL55 4SH",53.114165,-4.1376834,FALSE,FALSE
Mountaineering Club of North Wales,,,Tal y Braich,6.5,TRUE,SH 700604,"Tal Y Braich, Capel Curig, BETWS-Y-COED, Gwynedd, LL24 0EU",53.125005,-3.9443324,FALSE,FALSE
Mynydd Climbing Club,,,Blaen y Nant,8,TRUE,SH 738603,"Blaen y Nant, Crafnant Road, TREFRIW, Gwynedd, LL27 0JZ",53.12454,-3.8863395,FALSE,FALSE
Northern Pennine Club,www.northernpennineclub.org.uk/,20,Greenclose House,5,TRUE,SD 721693,"Greenclose House, Clapham, Via Lancaster, LA2 8HW",54.118803,-2.4283318,TRUE,FALSE
North London Mountaineering Club,,,Bryn Brethynau,5,FALSE,SH 737572,"Bryn Brethynau, Capel Curig, BETWS-Y-COED, Gwynedd",53.097137,-3.8872846,FALSE,FALSE
Oread Mountaineering Club,,,Tan Yr Wyddfa,9,TRUE,SH 570527,"Tan Yr Wyddfa, Rhyd Ddu, CAERNARFON, Gwynedd, LL54 6TN",53.05248,-4.1345913,FALSE,FALSE
Oxford Mountaineering Club,,,Cefn Garw,6,TRUE,SH 884518,"Cefn Garw, Pentrefoelas, BETWS-Y-COED, Gwynedd, LL24 0TA",53.052052,-3.6655878,FALSE,FALSE
Pinnacle Club,,,Cwm Dyli,8,TRUE,SH 653541,"Cwm Dyli, Nant Gwynant, CAERNARFON, Gwynedd",53.067054,-4.0124891,FALSE,FALSE
Rucksack Club,,,Beudy Mawr,8,TRUE,SH 616576,"Beudy Mawr, Nant Peris, CAERNARFON, Gwynedd, LL55 4UL",53.097096,-4.0693009,FALSE,FALSE
Rugby Mountaineering Club,,,Cwm Eigiau Cottage,5,FALSE,SH 714638,"Cwm Eigiau Cottage, Cwm Eigiau",53.155981,-3.9249556,FALSE,FALSE
Shrewsbury Mountaineering Club,,,Clwt y Bel,POA,TRUE,SH 592630,"Clwt y Bel, Deiniolen, CAERNARFON, Gwynedd",53.145725,-4.1067128,FALSE,FALSE
Solihull Mountaineering Club,,,Bryn Golau,9,TRUE,SH 858148,"Bryn Golau, Dinas Mawddwy, MACHYNLLETH, Powys",52.723273,-3.6887497,FALSE,FALSE
South Wales Mountaineering Club,,,Lletty Llwyd,10,TRUE,SH 580625,"Lletty Llwyd, Deiniolen, CAERNARFON, Gwynedd",53.140502,-4.1238297,FALSE,FALSE
The Chamois Club Ltd,,,Chamois Mountaineering Centre,10,TRUE,SH532608,"Ceunant, Waunfawr, CAERNARFON, Gwynedd, LL55 4SA",53.124144,-4.1957241,FALSE,FALSE
The Mountain Club - Stafford,,,Bryn Hafod,10,FALSE,SH 853194,"Bryn Hafod, Dinas Mawddwy, MACHYNLLETH, Powys, SY20 9JG",52.759739,-3.7004846,FALSE,FALSE
Univ of London Mountaineering Club,,,Caseg Fraith,9,FALSE,SH 684601,"Caseg Fraith, Capel Curig, BETWS-Y-COED, Gwynedd",53.121926,-3.9682927,FALSE,FALSE
Vagabond Mountaineering Club,,,Pant y Fron,3,FALSE,SH 606588,"Pant Y Fron, Nant Peris, CAERNARFON, Gwynedd, LL55 4UN",53.108828,-4.083569,FALSE,FALSE
Wellingborough Mountaineering Club,,,Gefnan Cottage,POA,FALSE,SH 607654,"Gefnan Cottage, 3 Gefnan, Mynydd Landegai, BANGOR, Gwynedd, LL57 4DJ",53.167281,-4.0843496,FALSE,FALSE
Wessex Mountaineering Club,,,Pen Y Clogwyn,6,FALSE,SH 795556,"Pen Y Clogwyn, BETWS-Y-COED, Gwynedd",53.08386,-3.8003836,FALSE,FALSE
Wolverhampton Mountaineering Club,,,Tal y Braich,8,FALSE,SH 587625,"Tal y Braich, Deiniolen, CAERNARFON, Gwynedd",53.140496,-4.1129846,FALSE,FALSE
Yorkshire Ramblers Club,www.yrc.org.uk/,16,Lowstern,12,TRUE,SD 736691,"Lowstern, Clapham, SETTLE, North Yorkshire",54.116675,-2.404479,TRUE,FALSE
Cwellyn Arms,,,Big Bunkhouse,15,TRUE,SH 566540,"Cwellyn Arms, Rhyd Ddu, At the foot of Snowdon, Gwynedd, LL54 6TL",53.064818,-4.141928,FALSE,FALSE
Crashpad Lodges,,,Yr Helfa Bunkhouse ,17,FALSE,SH 58353 57491,"Yr Helfa, Llanberis, Caernarfon, Gwynedd. LL55 4UW",53.095769,-4.1168691,FALSE,FALSE
Pentre Bach Bunkhouse,,,Pentre Bach Bunkhouse,12,TRUE,SH 53060 57944,near Waunfawr ,53.098413,-4.1960573,FALSE,FALSE
Snowdon Holidays,,,Snowdon Bunkhouse,12,FALSE,SH 61322 57764,Gwastadnant,53.099008,-4.0726772,FALSE,FALSE
Snowdon Holidays,,,Snowdon House,POA,TRUE,SH 61302 57773,Gwastadnant,53.099079,-4.072978,FALSE,FALSE
Jesse James bunkhouse,,,Jesse James bunkhouse,POA,FALSE,SH 566 638,"Jesse James Bunkhouse, Caernarfon, Gwynedd LL55 3DA",53.152538,-4.1453447,FALSE,FALSE
Bens Bunkhouse,,,Bens Bunkhouse,15,TRUE,SH 597588 ,"Bens Bunkhouse, Nant Peris, Llanberis. LL55 4UD",53.108197,-4.0973856,FALSE,FALSE
The Eagles Bunkhouse,,,The Eagles,20,TRUE,SH 78946 50574,"The Eagles,  Penmachno,  Conwy. LL24 0UG",53.0387,-3.8069028,FALSE,FALSE
Bristol Exploration Club,www.bec-cave.org.uk,20,The Belfry,5,TRUE,,,51.251768,-2.65734,TRUE,FALSE
Cerberus Spelaeological Society,www.cerberusspeleo.org.uk,31,,5,TRUE,,,51.222916,-2.5018497,TRUE,FALSE
Mendip Caving Group,www.mendipcavinggroup.org.uk,30,Nordrach Cottage,6,FALSE,,,51.301561,-2.697496,TRUE,FALSE
Mendip Nature Research Committee,www.mnrc.org.uk,21,,6,TRUE,,,51.24206,-2.589527,TRUE,FALSE
Shepton Mallet Caving Club,www.shepton.org.uk,25,,4.5,TRUE,,,51.251445,-2.654848,TRUE,FALSE
Wessex Cave Club,www.wessex-cave-club.org,44,Upper Pits,6,TRUE,,,51.255311,-2.665869,TRUE,FALSE
Bradford Pothole Club,www.bpc-cave.org.uk/,15,,6,TRUE,,,54.1454232,-2.2821255,TRUE,FALSE
Craven Pothole Club,www.cravenpotholeclub.org,12,,6,TRUE,,,54.149744,-2.295881,TRUE,FALSE
Northern Pennine Club,www.northernpennineclub.org.uk,20,,5,TRUE,,,54.118803,-2.4283318,TRUE,FALSE
Red Rose CPC,www.rrcpc.org.uk,20,,5,TRUE,,,54.227623,-2.518617,TRUE,FALSE
YSS,www.yssuk.com ,32,,5,TRUE,,,54.1210481,-2.2939627,TRUE,FALSE
Orpheus Caving Club,www.orpheuscavingclub.org.uk,18,,6,TRUE,,,53.162152,-1.783156,TRUE,FALSE
Technical Speleological Group,www.tsgcaving.co.uk,18,The Chapel,5,TRUE,,,53.343435,-1.775418,TRUE,FALSE
Chelsea Spelaelogical Society,www.chelseaspelaeo.org.uk/,16,Whitewalls,5,TRUE,,,51.835127,-3.156622,TRUE,FALSE
Croydon Caving Club,www.croydoncavingclub.org.uk,15,Godre Pentre,5,TRUE,,,51.808993,-3.554072,TRUE,FALSE
South Wales Caving Club,www.swcc.org.uk,30,,9,TRUE,,"1-10 Powell St, Penwyllt, Pen-y-Cae, Swansea SA9 1GQ",51.825775,-3.661131,TRUE,FALSE
Westminster Speleological Group,www.wsg.org.uk,18,,4,TRUE,,,51.752367,-3.544872,TRUE,FALSE
Devon Speleological Society,www.devonss.org.uk,16,,11,TRUE,,,50.480946,-3.783131,TRUE,FALSE
Grampian Speleological Group,www.gsg.org.uk/,20,,8,TRUE,,,58.056469,-5.028023,TRUE,FALSE
William Pengelly Cave Studies Trust,www.pengellytrust.org/,25,,10,TRUE,,,50.484378,-3.77133,TRUE,FALSE
University of Leeds,sport.leeds.ac.uk/facilities/outdoors/,23,Selside,POA Sole occupancy,TRUE,,,54.177516,-2.3354833,FALSE,FALSE
University of Leeds,sport.leeds.ac.uk/facilities/outdoors/,36,Dalehead,POA Sole occupancy,TRUE,,,54.395571,-3.16982,FALSE,FALSE
tiptop,,,,,,,,54.20801932,-2.50996933,FALSE,TRUE
akahole,,,,,,,,54.19214518,-2.50275171,FALSE,TRUE
akahole.GPS,,,,,,,,54.19205087,-2.50276099,FALSE,TRUE
heronpot.topentrance,,,,,,,,54.20378496,-2.43932869,FALSE,TRUE
heronpot.bottomentrance,,,,,,,,54.2070056,-2.44119807,FALSE,TRUE
boundarypot.bdy1,,,,,,,,54.2222465,-2.49432244,FALSE,TRUE
wretchedrabbit.wra,,,,,,,,54.22078533,-2.49790019,FALSE,TRUE
cowpot.cw,,,,,,,,54.22229815,-2.51633225,FALSE,TRUE
poolsink.p1a,,,,,,,,54.22141361,-2.49660228,FALSE,TRUE
topsink.t01c,,,,,,,,54.22471946,-2.49173685,FALSE,TRUE
countypot.cya,,,,,,,,54.21987765,-2.49942995,FALSE,TRUE
cornersink.cns1,,,,,,,,54.22054427,-2.49859924,FALSE,TRUE
swindonhole.swh,,,,,,,,54.22012423,-2.49885199,FALSE,TRUE
theborehole.b01,,,,,,,,54.22107337,-2.4968149,FALSE,TRUE
swinsto.swi01.1,,,,,,,,54.19261214,-2.47062878,FALSE,TRUE
rumblinghole_2.101,,,,,,,,54.20662503,-2.50574368,FALSE,TRUE
brokenribpot,,,,,,,,54.18010822,-2.48257542,FALSE,TRUE
slitsinks.ss02.029,,,,,,,,54.22097445,-2.4975462,FALSE,TRUE
peterson.pep.000,,,,,,,,54.21410298,-2.5120301,FALSE,TRUE
greenlaidspot,,,,,,,,54.20046707,-2.46136734,FALSE,TRUE
mistral.ms,,,,,,,,54.21754119,-2.51300889,FALSE,TRUE
linkpot.lk01,,,,,,,,54.21775454,-2.5098564,FALSE,TRUE
newcave.new01,,,,,,,,54.22074933,-2.49789132,FALSE,TRUE
byegeorge.bg1,,,,,,,,54.21147906,-2.5055497,FALSE,TRUE
lancasterhole.l1,,,,,,,,54.22106458,-2.51676085,FALSE,TRUE
kangohole.004,,,,,,,,54.19992185,-2.51177802,FALSE,TRUE
sylvesterpot.syl2.024,,,,,,,,54.21994427,-2.50197551,FALSE,TRUE
newslitsinks.nss01.024,,,,,,,,54.22099181,-2.49752079,FALSE,TRUE
skylark_pot,,,,,,,,54.18557178,-2.48945808,FALSE,TRUE
aluminiumbar_pot,,,,,,,,54.21057474,-2.51744494,FALSE,TRUE
apprentice_pot,,,,,,,,54.20488535,-2.45758392,FALSE,TRUE
backdoor_stream,,,,,,,,54.20616092,-2.45299868,FALSE,TRUE
beadstead_pot,,,,,,,,54.19306389,-2.47002086,FALSE,TRUE
blood_pot,,,,,,,,54.19261633,-2.46955599,FALSE,TRUE
brokenspring_pot,,,,,,,,54.19406558,-2.46666036,FALSE,TRUE
calf_pot,,,,,,,,54.2038034,-2.45849177,FALSE,TRUE
cow_pot,,,,,,,,54.20344567,-2.45802791,FALSE,TRUE
creakingdeath_pot,,,,,,,,54.18314554,-2.47818255,FALSE,TRUE
deaddobbin_pot,,,,,,,,54.19727993,-2.51589925,FALSE,TRUE
doublethree_pot,,,,,,,,54.19342517,-2.46956517,FALSE,TRUE
drip_pot,,,,,,,,54.1911784,-2.46953969,FALSE,TRUE
keld_head.ent,,,,,,,,54.18407138,-2.46776442,FALSE,TRUE
midas,,,,,,,,54.20635063,-2.45274012,FALSE,TRUE
fagpot,,,,,,,,54.18855836,-2.47303466,FALSE,TRUE
battycave,,,,,,,,54.21046347,-2.45125184,FALSE,TRUE
buzzerspot,,,,,,,,54.18792323,-2.47455985,FALSE,TRUE
slopinghole,,,,,,,,54.20666358,-2.45554918,FALSE,TRUE
keldnookcave,,,,,,,,54.18550336,-2.47284653,FALSE,TRUE
sheepfoldpot,,,,,,,,54.18728627,-2.4765447,FALSE,TRUE
kale_pot,,,,,,,,54.18673225,-2.48026205,FALSE,TRUE
drifterpot,,,,,,,,54.18707041,-2.48558345,FALSE,TRUE
forgetmepot,,,,,,,,54.18773288,-2.48399748,FALSE,TRUE
towscarcave,,,,,,,,54.18266613,-2.48568505,FALSE,TRUE
kingpot,,,,,,,,54.19132592,-2.44910362,FALSE,TRUE
rapunzelpot1,,,,,,,,54.18504011,-2.47636562,FALSE,TRUE
sheepfoldpot,,,,,,,,54.18728627,-2.4765447,FALSE,TRUE
highplainpot2,,,,,,,,54.18733631,-2.48650602,FALSE,TRUE
slantingcave,,,,,,,,54.20813577,-2.45363356,FALSE,TRUE
craftsmanspot,,,,,,,,54.20461457,-2.45788753,FALSE,TRUE
brownhillpot,,,,,,,,54.20108211,-2.44113952,FALSE,TRUE
spectaclepot,,,,,,,,54.19477762,-2.44475081,FALSE,TRUE
cheesepressstonedig,,,,,,,,54.17983288,-2.47950793,FALSE,TRUE
unnamedandpreviouslyenjoyed,,,,,,,,54.18419208,-2.48616263,FALSE,TRUE
fathom_pot,,,,,,,,54.18862277,-2.47947177,FALSE,TRUE
highplain_pot1,,,,,,,,54.18688386,-2.48726691,FALSE,TRUE
humblepot,,,,,,,,54.20693635,-2.50651406,FALSE,TRUE
hunts_pot,,,,,,,,54.17622489,-2.47825589,FALSE,TRUE
keldnook_pot,,,,,,,,54.18576936,-2.47376899,FALSE,TRUE
keldscar_cave,,,,,,,,54.18597187,-2.46794831,FALSE,TRUE
lamb_pot,,,,,,,,54.18830246,-2.49203424,FALSE,TRUE
levitation_pot,,,,,,,,54.20616208,-2.45269207,FALSE,TRUE
lost_pot,,,,,,,,54.20019868,-2.50581845,FALSE,TRUE
lostpot_sink,,,,,,,,54.20019868,-2.50581845,FALSE,TRUE
meridian_pot,,,,,,,,54.20761496,-2.51602807,FALSE,TRUE
motheringsunday_pot,,,,,,,,54.18571802,-2.48664025,FALSE,TRUE
new_pot,,,,,,,,54.19152529,-2.47276204,FALSE,TRUE
newrift_pot,,,,,,,,54.20126031,-2.50981708,FALSE,TRUE
northendquarry_cave,,,,,,,,54.18534112,-2.49092641,FALSE,TRUE
owlfingerhole,,,,,,,,54.20554861,-2.515849,FALSE,TRUE
palmate_hole,,,,,,,,54.20590612,-2.45621541,FALSE,TRUE
yeadon_pipikin_surface_survey.petersonspot,,,,,,,,54.21401272,-2.51212098,FALSE,TRUE
plantation_pot,,,,,,,,54.20759307,-2.45454752,FALSE,TRUE
rapunzel_pot2,,,,,,,,54.1851312,-2.4760602,FALSE,TRUE
red_cave,,,,,,,,54.19360431,-2.46972046,FALSE,TRUE
rolandrats_hole,,,,,,,,54.17371398,-2.47684819,FALSE,TRUE
safari_cave,,,,,,,,54.17291784,-2.47362206,FALSE,TRUE
shortlongdrop_cave,,,,,,,,54.20720015,-2.50789713,FALSE,TRUE
shout_pot,,,,,,,,54.20308327,-2.4587904,FALSE,TRUE
simpson_cave,,,,,,,,54.19468873,-2.46820007,FALSE,TRUE
simpson_pot,,,,,,,,54.19568147,-2.46713839,FALSE,TRUE
suicide_pot,,,,,,,,54.19261633,-2.46955599,FALSE,TRUE
swinsto_south,,,,,,,,54.19233773,-2.47185175,FALSE,TRUE
thorney_pot,,,,,,,,54.19100343,-2.46831166,FALSE,TRUE
thorntonforce_cave1,,,,,,,,54.17302571,-2.46902762,FALSE,TRUE
thorntonforce_cave2,,,,,,,,54.17302571,-2.46902762,FALSE,TRUE
tosspot,,,,,,,,54.19965882,-2.50596514,FALSE,TRUE
track_cave,,,,,,,,54.18773137,-2.47762252,FALSE,TRUE
unnamed_shaft1,,,,,,,,54.18628736,-2.47913825,FALSE,TRUE
unnamed_shaft2,,,,,,,,54.18619443,-2.47990337,FALSE,TRUE
valentine_sink,,,,,,,,54.20591006,-2.51539357,FALSE,TRUE
valley_exit,,,,,,,,54.19870281,-2.4526105,FALSE,TRUE
whisper_pot,,,,,,,,54.20308327,-2.4587904,FALSE,TRUE
jinglingpot,,,,,,,,54.20026092,-2.4628121,FALSE,TRUE
witchesii-2.002,,,,,,,,54.21259101,-2.5195885,FALSE,TRUE
bullpotofthewitches,,,,,,,,54.226366,-2.51970648,FALSE,TRUE
pipsink.pipws.34,,,,,,,,54.21552778,-2.51029006,FALSE,TRUE
gavelpot.gvl2.000,,,,,,,,54.20588791,-2.51287714,FALSE,TRUE
valleyentrance.0,,,,,,,,54.19154992,-2.46271997,FALSE,TRUE
longdrop,,,,,,,,54.20730483,-2.50700551,FALSE,TRUE
startinghandlehole,,,,,,,,54.20209571,-2.50864514,FALSE,TRUE
keld_headseries.kh01,,,,,,,,54.18407138,-2.46776442,FALSE,TRUE
rumblingbeckcave,,,,,,,,54.20684476,-2.50486741,FALSE,TRUE
kirkpot,,,,,,,,54.21636599,-2.51880062,FALSE,TRUE
rowtenpot,,,,,,,,54.19686326,-2.46411009,FALSE,TRUE
aquamole,,,,,,,,54.1999099,-2.46250022,FALSE,TRUE
roof_tunnel,,,,,,,,54.19154992,-2.46271997,FALSE,TRUE
peglegpot,,,,,,,,54.21681529,-2.51787632,FALSE,TRUE
bumblinghole,,,,,,,,54.20822331,-2.50823166,FALSE,TRUE
jinglingcavetop2.9x,,,,,,,,54.20018467,-2.46340724,FALSE,TRUE
witchescave,,,,,,,,54.21460864,-2.52240624,FALSE,TRUE
bullpot,,,,,,,,54.20361159,-2.45811866,FALSE,TRUE
surfacemarblesteps2sink,,,,,,,,54.18832926,-2.49145774,FALSE,TRUE
surfacemarblesteps.003,,,,,,,,54.18830622,-2.49179767,FALSE,TRUE
surfacemarblesteps.007,,,,,,,,54.18832926,-2.49145774,FALSE,TRUE
surfacemarblesteps.008,,,,,,,,54.18838374,-2.49147662,FALSE,TRUE
leckbeckheadwesteast.10,,,,,,,,54.21462146,-2.5236767,FALSE,TRUE
turbarypot,,,,,,,,54.19236704,-2.46885844,FALSE,TRUE
weepot,,,,,,,,54.20819825,-2.51413417,FALSE,TRUE
nottsii,,,,,,,,54.19940317,-2.51243811,FALSE,TRUE
lambtrap,,,,,,,,54.20942473,-2.51332161,FALSE,TRUE
pilgrimpot,,,,,,,,54.1877631,-2.48213301,FALSE,TRUE
bleadubspot,,,,,,,,54.18793003,-2.48216882,FALSE,TRUE
shortlongdrop,,,,,,,,54.20730483,-2.50700551,FALSE,TRUE
lostjohnstag,,,,,,,,54.20251362,-2.50625758,FALSE,TRUE
coalhole,,,,,,,,54.20608975,-2.5049462,FALSE,TRUE
leckbeckheadwesteast.1,,,,,,,,54.21474499,-2.52327252,FALSE,TRUE
roughpot,,,,,,,,54.20241141,-2.50581499,FALSE,TRUE
shortdrop,,,,,,,,54.20505136,-2.50699676,FALSE,TRUE
jinglingcavetop.3,,,,,,,,54.20025113,-2.46316042,FALSE,TRUE
rowtencavebottom.3,,,,,,,,54.19714672,-2.4641099,FALSE,TRUE
eyeholes.004,,,,,,,,54.20735391,-2.50979356,FALSE,TRUE
brokenribcave,,,,,,,,54.18017156,-2.48237851,FALSE,TRUE
leckbeckheadwesteast.5,,,,,,,,54.21486492,-2.52338889,FALSE,TRUE
jinglingcavetop.7,,,,,,,,54.20024708,-2.4633267,FALSE,TRUE
rowtencavetop.13,,,,,,,,54.1970318,-2.46556873,FALSE,TRUE
kirkpot2.31,,,,,,,,54.21632844,-2.51885965,FALSE,TRUE
kirkpot2.35,,,,,,,,54.21636073,-2.51885238,FALSE,TRUE
pipsink,,,,,,,,54.21553899,-2.51010312,FALSE,TRUE
bruntskillpot,,,,,,,,54.20895986,-2.51151537,FALSE,TRUE
yordas1.1,,,,,,,,54.20671743,-2.45299664,FALSE,TRUE
rowtencavetop.1,,,,,,,,54.19686623,-2.46601613,FALSE,TRUE
rowtencavebottom.6,,,,,,,,54.1971568,-2.4640372,FALSE,TRUE
rowtencavetop.9,,,,,,,,54.19699342,-2.46573292,FALSE,TRUE
jinglingmiddle.21,,,,,,,,54.1989082,-2.46424231,FALSE,TRUE
rowtencavemiddle.26e,,,,,,,,54.19699005,-2.46439385,FALSE,TRUE
surfacemarblesteps2sink.003,,,,,,,,54.18838543,-2.49148108,FALSE,TRUE
yeadon_pipikin_surface_survey.pipikinentrance,,,,,,,,54.2153699,-2.51055816,FALSE,TRUE
boxheadpot,,,,,,,,54.19996187,-2.50579502,FALSE,TRUE
yeadon_pipikin_surface_survey.crosshall-nearwaterfall,,,,,,,,54.21418936,-2.51474931,FALSE,TRUE
yeadon_pipikin_surface_survey.endofdive,,,,,,,,54.2118935,-2.51464622,FALSE,TRUE
aquamole,,,,,,,,54.1999099,-2.46250022,FALSE,TRUE
byron,,,,,,,,54.20733481,-2.50624542,FALSE,TRUE
ireby,,,,,,,,54.19074364,-2.5017695,FALSE,TRUE
mohole,,,,,,,,54.18761681,-2.48288772,FALSE,TRUE
nnepot,,,,,,,,54.18362465,-2.48721892,FALSE,TRUE
lowdouk,,,,,,,,54.18580355,-2.49544182,FALSE,TRUE
riftpot,,,,,,,,54.18681436,-2.49312219,FALSE,TRUE
largepot,,,,,,,,54.18646004,-2.48847957,FALSE,TRUE
nottspot,,,,,,,,54.1948962,-2.50566079,FALSE,TRUE
potblack,,,,,,,,54.21450895,-2.5156738,FALSE,TRUE
shep_pot,,,,,,,,54.19704206,-2.50638457,FALSE,TRUE
bigmeanie,,,,,,,,54.20719596,-2.51247158,FALSE,TRUE
brollypot,,,,,,,,54.18761374,-2.48358571,FALSE,TRUE
littlepot,,,,,,,,54.18642543,-2.48832653,FALSE,TRUE
northendpot,,,,,,,,54.18354656,-2.48719441,FALSE,TRUE
perilouspot,,,,,,,,54.19589988,-2.50539102,FALSE,TRUE
pinocchiopot,,,,,,,,54.19351236,-2.50691109,FALSE,TRUE
cockaminecave,,,,,,,,54.20728581,-2.51611871,FALSE,TRUE
vesperpot,,,,,,,,54.19329638,-2.44305098,FALSE,TRUE
deathsheadhole,,,,,,,,54.20707139,-2.51077896,FALSE,TRUE
crescentpot,,,,,,,,54.18430718,-2.45286886,FALSE,TRUE
illusionpot,,,,,,,,54.18116126,-2.46100077,FALSE,TRUE
growlinghole,,,,,,,,54.1923607,-2.44211941,FALSE,TRUE
lordstophole,,,,,,,,54.18980173,-2.45114924,FALSE,TRUE
rumblingmain,,,,,,,,54.20668691,-2.50566671,FALSE,TRUE
hopelesspot,,,,,,,,54.19404727,-2.50591082,FALSE,TRUE
excellent_entrance,,,,,,,,54.19638468,-2.50654222,FALSE,TRUE
fenwick_pot,,,,,,,,54.2086851,-2.51388172,FALSE,TRUE
yeadon_pipikin_surface_survey.gourhall,,,,,,,,54.21277139,-2.51571946,FALSE,TRUE
yeadon_pipikin_surface_survey.hallof10_mountainking_jct,,,,,,,,54.21470304,-2.5128205,FALSE,TRUE
yeadon_pipikin_surface_survey.hallofthedamned,,,,,,,,54.21409053,-2.51309781,FALSE,TRUE
itsacracker,,,,,,,,54.20002792,-2.50532568,FALSE,TRUE
yeadon_pipikin_surface_survey.smokeyhole,,,,,,,,54.2144032,-2.51233866,FALSE,TRUE
thecupcake,,,,,,,,54.20047802,-2.5115611,FALSE,TRUE
voldemort,,,,,,,,54.19896168,-2.5092446,FALSE,TRUE
yeadon_pipikin_surface_survey.waterfallchambersump,,,,,,,,54.21395159,-2.51311664,FALSE,TRUE
dalebarncave.newentrance,,,,,,,,54.17491613,-2.4445376,FALSE,TRUE
dalebarncave.oldentrance,,,,,,,,54.17490985,-2.4436588,FALSE,TRUE
