name,website,guestbunks,hutname,pppn,dryingroom,gridref,location,lat,lng,caveclub,cave,survey
ABMSAC-Association of British Members of the Swiss Alpine Club,,,George Starkey,11,TRUE,NY 396160,"Patterdale, Patterdale, Cumbria",54.536333,-2.9378416,FALSE,FALSE,FALSE
Barrow Mountaineering & Ski Club,,,Coppermines Cottage,8,FALSE,SD 289986,"Coppermines Valley, CONISTON, Cumbria, LA21 8HP",54.3779,-3.094783,FALSE,FALSE,FALSE
Brathay Hall Trust,,,Shackleton Lodge,POA Sole occupancy,TRUE,NY 366027,"Shackleton Lodge, Brathay Hall, Ambleside Cumbria, LA22 0HP","54.416211,-2.9782001",-2.9782001,FALSE,FALSE,FALSE
Carlisle Mountaineering Club,,,Newlands,7,FALSE,NY 229177,"Newlands Valley, Cumbria",54.548531,-3.19279,FALSE,FALSE,FALSE
Cleveland Mountaineering Club,,,Agnes Spencer Memorial Hut,8,TRUE,NY 391162,"Patterdale, Ullswater",54.537544,-2.9423531,FALSE,FALSE,FALSE
Fylde Mountaineering Club,,,Stair Hut,POA Sole occupancy,TRUE,NY 237210,"Stair Hut, Stair, KESWICK, Cumbria, CA12 5UF",54.579005,-3.1816129,FALSE,FALSE,FALSE
K Fellfarers,,,High House,POA Sole occupancy,TRUE,NY 235119,"High House, Borrowdale, KESWICK, Cumbria, CA12 5XJ",54.496835,-3.1816832,FALSE,FALSE,FALSE
Lancashire Caving & Climbing Club,www.lancashirecavingandclimbingclub.co.uk/,20,Tranearth,9,TRUE,SD 281957,"Tranearth, Torver, CONISTON, Cumbria, LA21 8BP",54.351177,-3.1077703,TRUE,FALSE,FALSE
Lancashire Mountaineering Club,,,The Loft adjacent to Blea Tarn House,8,FALSE,NY 295048,"The Loft adjacent to Blea Tarn House, Little Langdale, AMBLESIDE, Cumbria,LA22 9PG",54.433925,-3.0883511,FALSE,FALSE,FALSE
St Helens Mountaineering Club,,,Martin Brookman,8,FALSE,NY 235230,"Newlands Valley Road, Braithwaite, nr Keswick",54.596187,-3.1833496,FALSE,FALSE,FALSE
Wayfarers Walking Club,,,Robertson Lamb,10,TRUE,NY 304067,"Raw Head, Great Langdale, AMBLESIDE, Cumbria, LA22 9JS",54.450766,-3.0745323,FALSE,FALSE,FALSE
Yorkshire Mountaineering Club,,,"3 Irish Row, Coppermines Valley",8,TRUE,SD 292984,"3 Irish Row, Coppermines Valley, CONISTON, Cumbria, LA21 8HP",54.37673,-3.0913679,FALSE,FALSE,FALSE
Yorkshire Ramblers Club,,12,Low Hall Garth,10,TRUE,NY 309029,"Low Hall Garth, Little Langdale, AMBLESIDE, Cumbria, LA22 9NT",54.416587,-3.0655791,TRUE,FALSE,FALSE
Fylde Mountaineering Club,,,Little Langdale,POA Sole occupancy,TRUE,NY 315030,"2 New Houses, Little Langdale, AMBLESIDE, Cumbria, LA22 9PB",54.418089,-3.0558948,FALSE,FALSE,FALSE
Rucksack Club,,,High Moss,15,FALSE,SD 23740 96681,"High Moss Cottage, Seathwaite, BROUGHTON-IN-FURNESS, Cumbria, LA20 6EE",54.359926,-3.1750353,FALSE,FALSE,FALSE
Climbers' Club,,,R O Downes,12,FALSE,SK 249772,"Froggatt, Derbyshire",53.290761,-1.6278044,FALSE,FALSE,FALSE
Derbyshire Pennine Club,thedpc.co.uk/hut,13,Carlswark Cottage,8,FALSE,SK 232755,"Stoney Middleton, Peak District, North Derbyshire, S32 4TN",53.090327,-4.0559473,TRUE,FALSE,FALSE
Oread Mountaineering Club,,,Heathy Lea,8/6.5,FALSE,SK 273722,"One mile from Baslow, off main road A619 for Chesterfield, Close to Chatsworth, Birchen and Gardoms edges, Marked as Saw Mill on O.S. White Peak Map, Peak District",53.245362,-1.5938081,FALSE,FALSE,FALSE
The British Mountaineering Council,,,Don Whillans Memorial Hut,8,FALSE,SK 007622,"Rockhall Cottage, The Roaches",53.156737,-1.9924588,FALSE,FALSE,FALSE
Univ of London Mountaineering Club,,,Fallcliffe Cottage,9,FALSE,SK 240792,"Fall Cliff, Leam, Grindleford, HOPE VALLEY, Derbyshire, S32 2HL",53.308988,-1.6410006,FALSE,FALSE,FALSE
An Teallach MC,,,Strawberry Cottage,6.5,TRUE,NH 13197 20648,"Strawberry Cottage, West end of Loch Affric, on north side of the river Affric, opposite Athnamulloch",57.238295,-5.0970338,FALSE,FALSE,FALSE
Junior Mountaineering Club of Scotland,,,Coruisk Memorial,7.5,FALSE,NG 487197,"Loch Scavaig, ISLE OF SKYE",57.198957,-6.1620169,FALSE,FALSE,FALSE
Mill Cottage Trust,,,Mill Cottage Trust,10,TRUE,NH 84694 04800,"Mill Cottage, Feshie Bridge, KINGUSSIE, Inverness-Shire",57.119624,-3.9059472,FALSE,FALSE,FALSE
Mt Council of Scotland / BMC,,,Alex MacIntyre Memorial Hut,9,TRUE,NN 044612,"North Ballachulish, Onich, FORT WILLIAM, Inverness-Shire",56.700495,-5.1937743,FALSE,FALSE,FALSE
Mt Council of Scotland / BMC,,,Glen Brittle Memorial Hut,10,TRUE,NG 412216,"Glenbrittle, Carbost, ISLE OF SKYE, IV47 8TA",57.211901,-6.2886569,FALSE,FALSE,FALSE
Ochils Mountaineering Club,,,Inverardran Cottage,9,TRUE,NN 39190 25041,"Inverardran Cottage, CRIANLARICH, Perthshire, FK20 8QS",56.390195,-4.6065881,FALSE,FALSE,FALSE
Climbers' Club,,,Bosigran Count House,12,TRUE,SW 422365,"Bosigran Farm, Pendeen, PENZANCE, Cornwall, TR20 8YX",50.172574,-5.6127389,FALSE,FALSE,FALSE
Anabasis Mountaineering Club,,,Peter Llowarch Memorial Hut,5,FALSE,SH 700569,"Capel Curig, BETWS-Y-COED, Gwynedd",53.093546,-3.9430424,FALSE,FALSE,FALSE
Bowline Climbing Club,,,Dinorwic Mill Cottage,10,FALSE,SH 563625,"Dinorwic Mill Cottage, Brynrefail, Llanberis, CAERNARFON, Gwynedd",53.141448,-4.1521356,FALSE,FALSE,FALSE
Bromsgrove & Redditch Mt Club,,,Tremadog,POA,TRUE,SH 576405,"Tremadog, PORTHMADOG, Gwynedd",52.943333,-4.120558,FALSE,FALSE,FALSE
Ceunant Mountaineering Club,,,Tyn Lon,10,TRUE,SH 608582,"Nant Peris, CAERNARFON, Gwynedd, LL55 4UF",53.103946,-4.0826567,FALSE,FALSE,FALSE
Chester Mountaineering Club,,,Pen Ceunant Uchaf,7.5,TRUE,SH 581591,"Penceunant Uchaf, Llanberis, CAERNARFON, Gwynedd, LL55 4UW",53.109811,-4.1223373,FALSE,FALSE,FALSE
Climbers' Club,,,Cwm Glas Mawr,12,FALSE,SH 619569,Llanberis Pass,53.091758,-4.0621217,FALSE,FALSE,FALSE
Climbers' Club,,,Grange Old School House,12,FALSE,NY 251 176,"Grange, Borrowdale",54.54739,-3.1595745,FALSE,FALSE,FALSE
Climbers' Club,,,Helyg Hostel,12,TRUE,SH 694601,"Helyg Hostel, Capel Curig, BETWS-Y-COED, Gwynedd, LL24 0EU",53.122602,-3.9567324,FALSE,FALSE,FALSE
Climbers' Club,,,"R W Lloyd Hut, Ynys Ettws",12,TRUE,SH 624 568,Llanberis Pass,53.090327,-4.0559473,FALSE,FALSE,FALSE
Clogwyn Mountaineering Club,,,The Old Stable,8,FALSE,SH 619428,"Croesor Valley, Tremadog, PORTHMADOG, Gwynedd",52.964665,-4.056532,FALSE,FALSE,FALSE
Coventry Mountaineering Club,,,A T Reeve Memorial Hut,9,FALSE,SH 757078,"Aberderi, 3 Park Terrace, Corris, Machynlleth, Powys, SY20 9TD",52.65372,-3.8390602,FALSE,FALSE,FALSE
Gloucestershire Mountaineering Club,,,Cefn Goch,8.5,TRUE,SH 583625,"Cefn Goch Farm, Gallt Y Foel, Deiniolen, CAERNARFON, Gwynedd, LL55 3EF",53.140817,-4.1191668,FALSE,FALSE,FALSE
Gwydyr Mountain Club,,,Tan y Garth,9,TRUE,SH 737567,"Tan Y Garth, Capel Curig, BETWS-Y-COED, Gwynedd, LL24 0EB",53.092765,-3.8879134,FALSE,FALSE,FALSE
Junior Mountaineering Club of Scotland,,,Glanafon,8,FALSE,SH 623667,"18 Glanafon Street, Bethesda, BANGOR, Gwynedd",53.18031,-4.0641694,FALSE,FALSE,FALSE
Karabiner Mountaineering Club,,,Ty Powdwr,7,TRUE,SH 585609,"Dinorwic, Caernarfon, LL55 3ET",53.127183,-4.1156962,FALSE,FALSE,FALSE
Lancashire Caving & Climbing Club,www.lancashirecavingandclimbingclub.co.uk/,11,Dan y Mynydd,9,FALSE,SH 684454,"Tanygrisiau, Nr. Blaenau Ffestiniog, Gwynedd, LL41 3ST",52.988454,-3.9618383,FALSE,FALSE,FALSE
Lincoln Mountaineering Club,,,Ty Gwyn,8,FALSE,SH 580625,"Ty Gwyn, Deiniolen, CAERNARFON, Gwynedd",53.140787,-4.1242241,FALSE,FALSE,FALSE
London Mountaineering Club,,,Fronwydyr,8,TRUE,SH 606588,"Fronwydyr, Nant Peris, CAERNARFON, Gwynedd, LL55 4UN",53.108261,-4.0848337,FALSE,FALSE,FALSE
Merseyside Mountaineering Club,,,Cae'r Fran,7,TRUE,SH 570596,"Cae'r Fran, Capel Coch Road, Llanberis, CAERNARFON, Gwynedd, LL55 4SH",53.114165,-4.1376834,FALSE,FALSE,FALSE
Mountaineering Club of North Wales,,,Tal y Braich,6.5,TRUE,SH 700604,"Tal Y Braich, Capel Curig, BETWS-Y-COED, Gwynedd, LL24 0EU",53.125005,-3.9443324,FALSE,FALSE,FALSE
Mynydd Climbing Club,,,Blaen y Nant,8,TRUE,SH 738603,"Blaen y Nant, Crafnant Road, TREFRIW, Gwynedd, LL27 0JZ",53.12454,-3.8863395,FALSE,FALSE,FALSE
Northern Pennine Club,www.northernpennineclub.org.uk/,20,Greenclose House,5,TRUE,SD 721693,"Greenclose House, Clapham, Via Lancaster, LA2 8HW",54.118803,-2.4283318,TRUE,FALSE,FALSE
North London Mountaineering Club,,,Bryn Brethynau,5,FALSE,SH 737572,"Bryn Brethynau, Capel Curig, BETWS-Y-COED, Gwynedd",53.097137,-3.8872846,FALSE,FALSE,FALSE
Oread Mountaineering Club,,,Tan Yr Wyddfa,9,TRUE,SH 570527,"Tan Yr Wyddfa, Rhyd Ddu, CAERNARFON, Gwynedd, LL54 6TN",53.05248,-4.1345913,FALSE,FALSE,FALSE
Oxford Mountaineering Club,,,Cefn Garw,6,TRUE,SH 884518,"Cefn Garw, Pentrefoelas, BETWS-Y-COED, Gwynedd, LL24 0TA",53.052052,-3.6655878,FALSE,FALSE,FALSE
Pinnacle Club,,,Cwm Dyli,8,TRUE,SH 653541,"Cwm Dyli, Nant Gwynant, CAERNARFON, Gwynedd",53.067054,-4.0124891,FALSE,FALSE,FALSE
Rucksack Club,,,Beudy Mawr,8,TRUE,SH 616576,"Beudy Mawr, Nant Peris, CAERNARFON, Gwynedd, LL55 4UL",53.097096,-4.0693009,FALSE,FALSE,FALSE
Rugby Mountaineering Club,,,Cwm Eigiau Cottage,5,FALSE,SH 714638,"Cwm Eigiau Cottage, Cwm Eigiau",53.155981,-3.9249556,FALSE,FALSE,FALSE
Shrewsbury Mountaineering Club,,,Clwt y Bel,POA,TRUE,SH 592630,"Clwt y Bel, Deiniolen, CAERNARFON, Gwynedd",53.145725,-4.1067128,FALSE,FALSE,FALSE
Solihull Mountaineering Club,,,Bryn Golau,9,TRUE,SH 858148,"Bryn Golau, Dinas Mawddwy, MACHYNLLETH, Powys",52.723273,-3.6887497,FALSE,FALSE,FALSE
South Wales Mountaineering Club,,,Lletty Llwyd,10,TRUE,SH 580625,"Lletty Llwyd, Deiniolen, CAERNARFON, Gwynedd",53.140502,-4.1238297,FALSE,FALSE,FALSE
The Chamois Club Ltd,,,Chamois Mountaineering Centre,10,TRUE,SH532608,"Ceunant, Waunfawr, CAERNARFON, Gwynedd, LL55 4SA",53.124144,-4.1957241,FALSE,FALSE,FALSE
The Mountain Club - Stafford,,,Bryn Hafod,10,FALSE,SH 853194,"Bryn Hafod, Dinas Mawddwy, MACHYNLLETH, Powys, SY20 9JG",52.759739,-3.7004846,FALSE,FALSE,FALSE
Univ of London Mountaineering Club,,,Caseg Fraith,9,FALSE,SH 684601,"Caseg Fraith, Capel Curig, BETWS-Y-COED, Gwynedd",53.121926,-3.9682927,FALSE,FALSE,FALSE
Vagabond Mountaineering Club,,,Pant y Fron,3,FALSE,SH 606588,"Pant Y Fron, Nant Peris, CAERNARFON, Gwynedd, LL55 4UN",53.108828,-4.083569,FALSE,FALSE,FALSE
Wellingborough Mountaineering Club,,,Gefnan Cottage,POA,FALSE,SH 607654,"Gefnan Cottage, 3 Gefnan, Mynydd Landegai, BANGOR, Gwynedd, LL57 4DJ",53.167281,-4.0843496,FALSE,FALSE,FALSE
Wessex Mountaineering Club,,,Pen Y Clogwyn,6,FALSE,SH 795556,"Pen Y Clogwyn, BETWS-Y-COED, Gwynedd",53.08386,-3.8003836,FALSE,FALSE,FALSE
Wolverhampton Mountaineering Club,,,Tal y Braich,8,FALSE,SH 587625,"Tal y Braich, Deiniolen, CAERNARFON, Gwynedd",53.140496,-4.1129846,FALSE,FALSE,FALSE
Yorkshire Ramblers Club,www.yrc.org.uk/,16,Lowstern,12,TRUE,SD 736691,"Lowstern, Clapham, SETTLE, North Yorkshire",54.116675,-2.404479,TRUE,FALSE,FALSE
Cwellyn Arms,,,Big Bunkhouse,15,TRUE,SH 566540,"Cwellyn Arms, Rhyd Ddu, At the foot of Snowdon, Gwynedd, LL54 6TL",53.064818,-4.141928,FALSE,FALSE,FALSE
Crashpad Lodges,,,Yr Helfa Bunkhouse ,17,FALSE,SH 58353 57491,"Yr Helfa, Llanberis, Caernarfon, Gwynedd. LL55 4UW",53.095769,-4.1168691,FALSE,FALSE,FALSE
Pentre Bach Bunkhouse,,,Pentre Bach Bunkhouse,12,TRUE,SH 53060 57944,near Waunfawr ,53.098413,-4.1960573,FALSE,FALSE,FALSE
Snowdon Holidays,,,Snowdon Bunkhouse,12,FALSE,SH 61322 57764,Gwastadnant,53.099008,-4.0726772,FALSE,FALSE,FALSE
Snowdon Holidays,,,Snowdon House,POA,TRUE,SH 61302 57773,Gwastadnant,53.099079,-4.072978,FALSE,FALSE,FALSE
Jesse James bunkhouse,,,Jesse James bunkhouse,POA,FALSE,SH 566 638,"Jesse James Bunkhouse, Caernarfon, Gwynedd LL55 3DA",53.152538,-4.1453447,FALSE,FALSE,FALSE
Bens Bunkhouse,,,Bens Bunkhouse,15,TRUE,SH 597588 ,"Bens Bunkhouse, Nant Peris, Llanberis. LL55 4UD",53.108197,-4.0973856,FALSE,FALSE,FALSE
The Eagles Bunkhouse,,,The Eagles,20,TRUE,SH 78946 50574,"The Eagles,  Penmachno,  Conwy. LL24 0UG",53.0387,-3.8069028,FALSE,FALSE,FALSE
Bristol Exploration Club,www.bec-cave.org.uk,20,The Belfry,5,TRUE,,,51.251768,-2.65734,TRUE,FALSE,FALSE
Cerberus Spelaeological Society,www.cerberusspeleo.org.uk,31,,5,TRUE,,,51.222916,-2.5018497,TRUE,FALSE,FALSE
Mendip Caving Group,www.mendipcavinggroup.org.uk,30,Nordrach Cottage,6,FALSE,,,51.301561,-2.697496,TRUE,FALSE,FALSE
Mendip Nature Research Committee,www.mnrc.org.uk,21,,6,TRUE,,,51.24206,-2.589527,TRUE,FALSE,FALSE
Shepton Mallet Caving Club,www.shepton.org.uk,25,,4.5,TRUE,,,51.251445,-2.654848,TRUE,FALSE,FALSE
Wessex Cave Club,www.wessex-cave-club.org,44,Upper Pits,6,TRUE,,,51.255311,-2.665869,TRUE,FALSE,FALSE
Bradford Pothole Club,www.bpc-cave.org.uk/,15,,6,TRUE,,,54.1454232,-2.2821255,TRUE,FALSE,FALSE
Craven Pothole Club,www.cravenpotholeclub.org,12,,6,TRUE,,,54.149744,-2.295881,TRUE,FALSE,FALSE
Northern Pennine Club,www.northernpennineclub.org.uk,20,,5,TRUE,,,54.118803,-2.4283318,TRUE,FALSE,FALSE
Red Rose CPC,www.rrcpc.org.uk,20,,5,TRUE,,,54.227623,-2.518617,TRUE,FALSE,FALSE
YSS,www.yssuk.com ,32,,5,TRUE,,,54.1210481,-2.2939627,TRUE,FALSE,FALSE
Orpheus Caving Club,www.orpheuscavingclub.org.uk,18,,6,TRUE,,,53.162152,-1.783156,TRUE,FALSE,FALSE
Technical Speleological Group,www.tsgcaving.co.uk,18,The Chapel,5,TRUE,,,53.343435,-1.775418,TRUE,FALSE,FALSE
Chelsea Spelaelogical Society,www.chelseaspelaeo.org.uk/,16,Whitewalls,5,TRUE,,,51.835127,-3.156622,TRUE,FALSE,FALSE
Croydon Caving Club,www.croydoncavingclub.org.uk,15,Godre Pentre,5,TRUE,,,51.808993,-3.554072,TRUE,FALSE,FALSE
South Wales Caving Club,www.swcc.org.uk,30,,9,TRUE,,"1-10 Powell St, Penwyllt, Pen-y-Cae, Swansea SA9 1GQ",51.825775,-3.661131,TRUE,FALSE,FALSE
Westminster Speleological Group,www.wsg.org.uk,18,,4,TRUE,,,51.752367,-3.544872,TRUE,FALSE,FALSE
Devon Speleological Society,www.devonss.org.uk,16,,11,TRUE,,,50.480946,-3.783131,TRUE,FALSE,FALSE
Grampian Speleological Group,www.gsg.org.uk/,20,,8,TRUE,,,58.056469,-5.028023,TRUE,FALSE,FALSE
William Pengelly Cave Studies Trust,www.pengellytrust.org/,25,,10,TRUE,,,50.484378,-3.77133,TRUE,FALSE,FALSE
University of Leeds,sport.leeds.ac.uk/facilities/outdoors/,23,Selside,POA Sole occupancy,TRUE,,,54.177516,-2.3354833,FALSE,FALSE,FALSE
University of Leeds,sport.leeds.ac.uk/facilities/outdoors/,36,Dalehead,POA Sole occupancy,TRUE,,,54.395571,-3.16982,FALSE,FALSE,FALSE
tiptop,,,,,,,,54.20801932,-2.50996933,FALSE,TRUE,FALSE
akahole,,,,,,,,54.19214518,-2.50275171,FALSE,TRUE,FALSE
akahole.GPS,,,,,,,,54.19205087,-2.50276099,FALSE,TRUE,FALSE
heronpot.topentrance,,,,,,,,54.20378496,-2.43932869,FALSE,TRUE,FALSE
heronpot.bottomentrance,,,,,,,,54.2070056,-2.44119807,FALSE,TRUE,FALSE
boundarypot.bdy1,,,,,,,,54.2222465,-2.49432244,FALSE,TRUE,FALSE
wretchedrabbit.wra,,,,,,,,54.22078533,-2.49790019,FALSE,TRUE,FALSE
cowpot.cw,,,,,,,,54.22229815,-2.51633225,FALSE,TRUE,FALSE
poolsink.p1a,,,,,,,,54.22141361,-2.49660228,FALSE,TRUE,FALSE
topsink.t01c,,,,,,,,54.22471946,-2.49173685,FALSE,TRUE,FALSE
countypot.cya,,,,,,,,54.21987765,-2.49942995,FALSE,TRUE,FALSE
cornersink.cns1,,,,,,,,54.22054427,-2.49859924,FALSE,TRUE,FALSE
swindonhole.swh,,,,,,,,54.22012423,-2.49885199,FALSE,TRUE,FALSE
theborehole.b01,,,,,,,,54.22107337,-2.4968149,FALSE,TRUE,FALSE
swinsto.swi01.1,,,,,,,,54.19261214,-2.47062878,FALSE,TRUE,FALSE
rumblinghole_2.101,,,,,,,,54.20662503,-2.50574368,FALSE,TRUE,FALSE
brokenribpot,,,,,,,,54.18010822,-2.48257542,FALSE,TRUE,FALSE
slitsinks.ss02.029,,,,,,,,54.22097445,-2.4975462,FALSE,TRUE,FALSE
peterson.pep.000,,,,,,,,54.21410298,-2.5120301,FALSE,TRUE,FALSE
greenlaidspot,,,,,,,,54.20046707,-2.46136734,FALSE,TRUE,FALSE
mistral.ms,,,,,,,,54.21754119,-2.51300889,FALSE,TRUE,FALSE
linkpot.lk01,,,,,,,,54.21775454,-2.5098564,FALSE,TRUE,FALSE
newcave.new01,,,,,,,,54.22074933,-2.49789132,FALSE,TRUE,FALSE
byegeorge.bg1,,,,,,,,54.21147906,-2.5055497,FALSE,TRUE,FALSE
lancasterhole.l1,,,,,,,,54.22106458,-2.51676085,FALSE,TRUE,FALSE
kangohole.004,,,,,,,,54.19992185,-2.51177802,FALSE,TRUE,FALSE
sylvesterpot.syl2.024,,,,,,,,54.21994427,-2.50197551,FALSE,TRUE,FALSE
newslitsinks.nss01.024,,,,,,,,54.22099181,-2.49752079,FALSE,TRUE,FALSE
skylark_pot,,,,,,,,54.18557178,-2.48945808,FALSE,TRUE,FALSE
aluminiumbar_pot,,,,,,,,54.21057474,-2.51744494,FALSE,TRUE,FALSE
apprentice_pot,,,,,,,,54.20488535,-2.45758392,FALSE,TRUE,FALSE
backdoor_stream,,,,,,,,54.20616092,-2.45299868,FALSE,TRUE,FALSE
beadstead_pot,,,,,,,,54.19306389,-2.47002086,FALSE,TRUE,FALSE
blood_pot,,,,,,,,54.19261633,-2.46955599,FALSE,TRUE,FALSE
brokenspring_pot,,,,,,,,54.19406558,-2.46666036,FALSE,TRUE,FALSE
calf_pot,,,,,,,,54.2038034,-2.45849177,FALSE,TRUE,FALSE
cow_pot,,,,,,,,54.20344567,-2.45802791,FALSE,TRUE,FALSE
creakingdeath_pot,,,,,,,,54.18314554,-2.47818255,FALSE,TRUE,FALSE
deaddobbin_pot,,,,,,,,54.19727993,-2.51589925,FALSE,TRUE,FALSE
doublethree_pot,,,,,,,,54.19342517,-2.46956517,FALSE,TRUE,FALSE
drip_pot,,,,,,,,54.1911784,-2.46953969,FALSE,TRUE,FALSE
keld_head.ent,,,,,,,,54.18407138,-2.46776442,FALSE,TRUE,FALSE
midas,,,,,,,,54.20635063,-2.45274012,FALSE,TRUE,FALSE
fagpot,,,,,,,,54.18855836,-2.47303466,FALSE,TRUE,FALSE
battycave,,,,,,,,54.21046347,-2.45125184,FALSE,TRUE,FALSE
buzzerspot,,,,,,,,54.18792323,-2.47455985,FALSE,TRUE,FALSE
slopinghole,,,,,,,,54.20666358,-2.45554918,FALSE,TRUE,FALSE
keldnookcave,,,,,,,,54.18550336,-2.47284653,FALSE,TRUE,FALSE
sheepfoldpot,,,,,,,,54.18728627,-2.4765447,FALSE,TRUE,FALSE
kale_pot,,,,,,,,54.18673225,-2.48026205,FALSE,TRUE,FALSE
drifterpot,,,,,,,,54.18707041,-2.48558345,FALSE,TRUE,FALSE
forgetmepot,,,,,,,,54.18773288,-2.48399748,FALSE,TRUE,FALSE
towscarcave,,,,,,,,54.18266613,-2.48568505,FALSE,TRUE,FALSE
kingpot,,,,,,,,54.19132592,-2.44910362,FALSE,TRUE,FALSE
rapunzelpot1,,,,,,,,54.18504011,-2.47636562,FALSE,TRUE,FALSE
sheepfoldpot,,,,,,,,54.18728627,-2.4765447,FALSE,TRUE,FALSE
highplainpot2,,,,,,,,54.18733631,-2.48650602,FALSE,TRUE,FALSE
slantingcave,,,,,,,,54.20813577,-2.45363356,FALSE,TRUE,FALSE
craftsmanspot,,,,,,,,54.20461457,-2.45788753,FALSE,TRUE,FALSE
brownhillpot,,,,,,,,54.20108211,-2.44113952,FALSE,TRUE,FALSE
spectaclepot,,,,,,,,54.19477762,-2.44475081,FALSE,TRUE,FALSE
cheesepressstonedig,,,,,,,,54.17983288,-2.47950793,FALSE,TRUE,FALSE
unnamedandpreviouslyenjoyed,,,,,,,,54.18419208,-2.48616263,FALSE,TRUE,FALSE
fathom_pot,,,,,,,,54.18862277,-2.47947177,FALSE,TRUE,FALSE
highplain_pot1,,,,,,,,54.18688386,-2.48726691,FALSE,TRUE,FALSE
humblepot,,,,,,,,54.20693635,-2.50651406,FALSE,TRUE,FALSE
hunts_pot,,,,,,,,54.17622489,-2.47825589,FALSE,TRUE,FALSE
keldnook_pot,,,,,,,,54.18576936,-2.47376899,FALSE,TRUE,FALSE
keldscar_cave,,,,,,,,54.18597187,-2.46794831,FALSE,TRUE,FALSE
lamb_pot,,,,,,,,54.18830246,-2.49203424,FALSE,TRUE,FALSE
levitation_pot,,,,,,,,54.20616208,-2.45269207,FALSE,TRUE,FALSE
lost_pot,,,,,,,,54.20019868,-2.50581845,FALSE,TRUE,FALSE
lostpot_sink,,,,,,,,54.20019868,-2.50581845,FALSE,TRUE,FALSE
meridian_pot,,,,,,,,54.20761496,-2.51602807,FALSE,TRUE,FALSE
motheringsunday_pot,,,,,,,,54.18571802,-2.48664025,FALSE,TRUE,FALSE
new_pot,,,,,,,,54.19152529,-2.47276204,FALSE,TRUE,FALSE
newrift_pot,,,,,,,,54.20126031,-2.50981708,FALSE,TRUE,FALSE
northendquarry_cave,,,,,,,,54.18534112,-2.49092641,FALSE,TRUE,FALSE
owlfingerhole,,,,,,,,54.20554861,-2.515849,FALSE,TRUE,FALSE
palmate_hole,,,,,,,,54.20590612,-2.45621541,FALSE,TRUE,FALSE
yeadon_pipikin_surface_survey.petersonspot,,,,,,,,54.21401272,-2.51212098,FALSE,TRUE,FALSE
plantation_pot,,,,,,,,54.20759307,-2.45454752,FALSE,TRUE,FALSE
rapunzel_pot2,,,,,,,,54.1851312,-2.4760602,FALSE,TRUE,FALSE
red_cave,,,,,,,,54.19360431,-2.46972046,FALSE,TRUE,FALSE
rolandrats_hole,,,,,,,,54.17371398,-2.47684819,FALSE,TRUE,FALSE
safari_cave,,,,,,,,54.17291784,-2.47362206,FALSE,TRUE,FALSE
shortlongdrop_cave,,,,,,,,54.20720015,-2.50789713,FALSE,TRUE,FALSE
shout_pot,,,,,,,,54.20308327,-2.4587904,FALSE,TRUE,FALSE
simpson_cave,,,,,,,,54.19468873,-2.46820007,FALSE,TRUE,FALSE
simpson_pot,,,,,,,,54.19568147,-2.46713839,FALSE,TRUE,FALSE
suicide_pot,,,,,,,,54.19261633,-2.46955599,FALSE,TRUE,FALSE
swinsto_south,,,,,,,,54.19233773,-2.47185175,FALSE,TRUE,FALSE
thorney_pot,,,,,,,,54.19100343,-2.46831166,FALSE,TRUE,FALSE
thorntonforce_cave1,,,,,,,,54.17302571,-2.46902762,FALSE,TRUE,FALSE
thorntonforce_cave2,,,,,,,,54.17302571,-2.46902762,FALSE,TRUE,FALSE
tosspot,,,,,,,,54.19965882,-2.50596514,FALSE,TRUE,FALSE
track_cave,,,,,,,,54.18773137,-2.47762252,FALSE,TRUE,FALSE
unnamed_shaft1,,,,,,,,54.18628736,-2.47913825,FALSE,TRUE,FALSE
unnamed_shaft2,,,,,,,,54.18619443,-2.47990337,FALSE,TRUE,FALSE
valentine_sink,,,,,,,,54.20591006,-2.51539357,FALSE,TRUE,FALSE
valley_exit,,,,,,,,54.19870281,-2.4526105,FALSE,TRUE,FALSE
whisper_pot,,,,,,,,54.20308327,-2.4587904,FALSE,TRUE,FALSE
jinglingpot,,,,,,,,54.20026092,-2.4628121,FALSE,TRUE,FALSE
witchesii-2.002,,,,,,,,54.21259101,-2.5195885,FALSE,TRUE,FALSE
bullpotofthewitches,,,,,,,,54.226366,-2.51970648,FALSE,TRUE,FALSE
pipsink.pipws.34,,,,,,,,54.21552778,-2.51029006,FALSE,TRUE,FALSE
gavelpot.gvl2.000,,,,,,,,54.20588791,-2.51287714,FALSE,TRUE,FALSE
valleyentrance.0,,,,,,,,54.19154992,-2.46271997,FALSE,TRUE,FALSE
longdrop,,,,,,,,54.20730483,-2.50700551,FALSE,TRUE,FALSE
startinghandlehole,,,,,,,,54.20209571,-2.50864514,FALSE,TRUE,FALSE
keld_headseries.kh01,,,,,,,,54.18407138,-2.46776442,FALSE,TRUE,FALSE
rumblingbeckcave,,,,,,,,54.20684476,-2.50486741,FALSE,TRUE,FALSE
kirkpot,,,,,,,,54.21636599,-2.51880062,FALSE,TRUE,FALSE
rowtenpot,,,,,,,,54.19686326,-2.46411009,FALSE,TRUE,FALSE
aquamole,,,,,,,,54.1999099,-2.46250022,FALSE,TRUE,FALSE
roof_tunnel,,,,,,,,54.19154992,-2.46271997,FALSE,TRUE,FALSE
peglegpot,,,,,,,,54.21681529,-2.51787632,FALSE,TRUE,FALSE
bumblinghole,,,,,,,,54.20822331,-2.50823166,FALSE,TRUE,FALSE
jinglingcavetop2.9x,,,,,,,,54.20018467,-2.46340724,FALSE,TRUE,FALSE
witchescave,,,,,,,,54.21460864,-2.52240624,FALSE,TRUE,FALSE
bullpot,,,,,,,,54.20361159,-2.45811866,FALSE,TRUE,FALSE
surfacemarblesteps2sink,,,,,,,,54.18832926,-2.49145774,FALSE,TRUE,FALSE
surfacemarblesteps.003,,,,,,,,54.18830622,-2.49179767,FALSE,TRUE,FALSE
surfacemarblesteps.007,,,,,,,,54.18832926,-2.49145774,FALSE,TRUE,FALSE
surfacemarblesteps.008,,,,,,,,54.18838374,-2.49147662,FALSE,TRUE,FALSE
leckbeckheadwesteast.10,,,,,,,,54.21462146,-2.5236767,FALSE,TRUE,FALSE
turbarypot,,,,,,,,54.19236704,-2.46885844,FALSE,TRUE,FALSE
weepot,,,,,,,,54.20819825,-2.51413417,FALSE,TRUE,FALSE
nottsii,,,,,,,,54.19940317,-2.51243811,FALSE,TRUE,FALSE
lambtrap,,,,,,,,54.20942473,-2.51332161,FALSE,TRUE,FALSE
pilgrimpot,,,,,,,,54.1877631,-2.48213301,FALSE,TRUE,FALSE
bleadubspot,,,,,,,,54.18793003,-2.48216882,FALSE,TRUE,FALSE
shortlongdrop,,,,,,,,54.20730483,-2.50700551,FALSE,TRUE,FALSE
lostjohnstag,,,,,,,,54.20251362,-2.50625758,FALSE,TRUE,FALSE
coalhole,,,,,,,,54.20608975,-2.5049462,FALSE,TRUE,FALSE
leckbeckheadwesteast.1,,,,,,,,54.21474499,-2.52327252,FALSE,TRUE,FALSE
roughpot,,,,,,,,54.20241141,-2.50581499,FALSE,TRUE,FALSE
shortdrop,,,,,,,,54.20505136,-2.50699676,FALSE,TRUE,FALSE
jinglingcavetop.3,,,,,,,,54.20025113,-2.46316042,FALSE,TRUE,FALSE
rowtencavebottom.3,,,,,,,,54.19714672,-2.4641099,FALSE,TRUE,FALSE
eyeholes.004,,,,,,,,54.20735391,-2.50979356,FALSE,TRUE,FALSE
brokenribcave,,,,,,,,54.18017156,-2.48237851,FALSE,TRUE,FALSE
leckbeckheadwesteast.5,,,,,,,,54.21486492,-2.52338889,FALSE,TRUE,FALSE
jinglingcavetop.7,,,,,,,,54.20024708,-2.4633267,FALSE,TRUE,FALSE
rowtencavetop.13,,,,,,,,54.1970318,-2.46556873,FALSE,TRUE,FALSE
kirkpot2.31,,,,,,,,54.21632844,-2.51885965,FALSE,TRUE,FALSE
kirkpot2.35,,,,,,,,54.21636073,-2.51885238,FALSE,TRUE,FALSE
pipsink,,,,,,,,54.21553899,-2.51010312,FALSE,TRUE,FALSE
bruntskillpot,,,,,,,,54.20895986,-2.51151537,FALSE,TRUE,FALSE
yordas1.1,,,,,,,,54.20671743,-2.45299664,FALSE,TRUE,FALSE
rowtencavetop.1,,,,,,,,54.19686623,-2.46601613,FALSE,TRUE,FALSE
rowtencavebottom.6,,,,,,,,54.1971568,-2.4640372,FALSE,TRUE,FALSE
rowtencavetop.9,,,,,,,,54.19699342,-2.46573292,FALSE,TRUE,FALSE
jinglingmiddle.21,,,,,,,,54.1989082,-2.46424231,FALSE,TRUE,FALSE
rowtencavemiddle.26e,,,,,,,,54.19699005,-2.46439385,FALSE,TRUE,FALSE
surfacemarblesteps2sink.003,,,,,,,,54.18838543,-2.49148108,FALSE,TRUE,FALSE
yeadon_pipikin_surface_survey.pipikinentrance,,,,,,,,54.2153699,-2.51055816,FALSE,TRUE,FALSE
boxheadpot,,,,,,,,54.19996187,-2.50579502,FALSE,TRUE,FALSE
yeadon_pipikin_surface_survey.crosshall-nearwaterfall,,,,,,,,54.21418936,-2.51474931,FALSE,TRUE,FALSE
yeadon_pipikin_surface_survey.endofdive,,,,,,,,54.2118935,-2.51464622,FALSE,TRUE,FALSE
aquamole,,,,,,,,54.1999099,-2.46250022,FALSE,TRUE,FALSE
byron,,,,,,,,54.20733481,-2.50624542,FALSE,TRUE,FALSE
ireby,,,,,,,,54.19074364,-2.5017695,FALSE,TRUE,FALSE
mohole,,,,,,,,54.18761681,-2.48288772,FALSE,TRUE,FALSE
nnepot,,,,,,,,54.18362465,-2.48721892,FALSE,TRUE,FALSE
lowdouk,,,,,,,,54.18580355,-2.49544182,FALSE,TRUE,FALSE
riftpot,,,,,,,,54.18681436,-2.49312219,FALSE,TRUE,FALSE
largepot,,,,,,,,54.18646004,-2.48847957,FALSE,TRUE,FALSE
nottspot,,,,,,,,54.1948962,-2.50566079,FALSE,TRUE,FALSE
potblack,,,,,,,,54.21450895,-2.5156738,FALSE,TRUE,FALSE
shep_pot,,,,,,,,54.19704206,-2.50638457,FALSE,TRUE,FALSE
bigmeanie,,,,,,,,54.20719596,-2.51247158,FALSE,TRUE,FALSE
brollypot,,,,,,,,54.18761374,-2.48358571,FALSE,TRUE,FALSE
littlepot,,,,,,,,54.18642543,-2.48832653,FALSE,TRUE,FALSE
northendpot,,,,,,,,54.18354656,-2.48719441,FALSE,TRUE,FALSE
perilouspot,,,,,,,,54.19589988,-2.50539102,FALSE,TRUE,FALSE
pinocchiopot,,,,,,,,54.19351236,-2.50691109,FALSE,TRUE,FALSE
cockaminecave,,,,,,,,54.20728581,-2.51611871,FALSE,TRUE,FALSE
vesperpot,,,,,,,,54.19329638,-2.44305098,FALSE,TRUE,FALSE
deathsheadhole,,,,,,,,54.20707139,-2.51077896,FALSE,TRUE,FALSE
crescentpot,,,,,,,,54.18430718,-2.45286886,FALSE,TRUE,FALSE
illusionpot,,,,,,,,54.18116126,-2.46100077,FALSE,TRUE,FALSE
growlinghole,,,,,,,,54.1923607,-2.44211941,FALSE,TRUE,FALSE
lordstophole,,,,,,,,54.18980173,-2.45114924,FALSE,TRUE,FALSE
rumblingmain,,,,,,,,54.20668691,-2.50566671,FALSE,TRUE,FALSE
hopelesspot,,,,,,,,54.19404727,-2.50591082,FALSE,TRUE,FALSE
excellent_entrance,,,,,,,,54.19638468,-2.50654222,FALSE,TRUE,FALSE
fenwick_pot,,,,,,,,54.2086851,-2.51388172,FALSE,TRUE,FALSE
yeadon_pipikin_surface_survey.gourhall,,,,,,,,54.21277139,-2.51571946,FALSE,TRUE,FALSE
yeadon_pipikin_surface_survey.hallof10_mountainking_jct,,,,,,,,54.21470304,-2.5128205,FALSE,TRUE,FALSE
yeadon_pipikin_surface_survey.hallofthedamned,,,,,,,,54.21409053,-2.51309781,FALSE,TRUE,FALSE
itsacracker,,,,,,,,54.20002792,-2.50532568,FALSE,TRUE,FALSE
yeadon_pipikin_surface_survey.smokeyhole,,,,,,,,54.2144032,-2.51233866,FALSE,TRUE,FALSE
thecupcake,,,,,,,,54.20047802,-2.5115611,FALSE,TRUE,FALSE
voldemort,,,,,,,,54.19896168,-2.5092446,FALSE,TRUE,FALSE
yeadon_pipikin_surface_survey.waterfallchambersump,,,,,,,,54.21395159,-2.51311664,FALSE,TRUE,FALSE
dalebarncave.newentrance,,,,,,,,54.17491613,-2.4445376,FALSE,TRUE,FALSE
dalebarncave.oldentrance,,,,,,,,54.17490985,-2.4436588,FALSE,TRUE,FALSE
,,,,,,,,54.21064075,-2.450945537,,,TRUE
,,,,,,,,54.2066586,-2.453268422,,,TRUE
,,,,,,,,54.19293012,-2.468044303,,,TRUE
,,,,,,,,54.20621029,-2.455309416,,,TRUE
,,,,,,,,54.20624988,-2.455247749,,,TRUE
,,,,,,,,54.20626705,-2.455219213,,,TRUE
,,,,,,,,54.20625021,-2.455257816,,,TRUE
,,,,,,,,54.20628094,-2.455268433,,,TRUE
,,,,,,,,54.20626099,-2.455261352,,,TRUE
,,,,,,,,54.20632602,-2.455412961,,,TRUE
,,,,,,,,54.20648797,-2.45536247,,,TRUE
,,,,,,,,54.20661134,-2.455398163,,,TRUE
,,,,,,,,54.20664226,-2.455421303,,,TRUE
,,,,,,,,54.20665545,-2.455433494,,,TRUE
,,,,,,,,54.18731603,-2.476606849,,,TRUE
,,,,,,,,54.200253,-2.463234314,,,TRUE
,,,,,,,,54.19936267,-2.463923871,,,TRUE
,,,,,,,,54.1996744,-2.463770455,,,TRUE
,,,,,,,,54.19863888,-2.464487843,,,TRUE
,,,,,,,,54.19801456,-2.464414568,,,TRUE
,,,,,,,,54.19773819,-2.464498176,,,TRUE
,,,,,,,,54.19693393,-2.46605332,,,TRUE
,,,,,,,,54.19700574,-2.465638487,,,TRUE
,,,,,,,,54.19713899,-2.465050284,,,TRUE
,,,,,,,,54.19717778,-2.465035406,,,TRUE
,,,,,,,,54.19697262,-2.46458948,,,TRUE
,,,,,,,,54.19729353,-2.464603579,,,TRUE
,,,,,,,,54.19729683,-2.464854687,,,TRUE
,,,,,,,,54.19726299,-2.464954027,,,TRUE
,,,,,,,,54.19711454,-2.464225406,,,TRUE
,,,,,,,,54.19720123,-2.464135638,,,TRUE
,,,,,,,,54.20629957,-2.452559562,,,TRUE
,,,,,,,,54.1855518,-2.472883007,,,TRUE
,,,,,,,,54.20036953,-2.462570708,,,TRUE
,,,,,,,,54.20031616,-2.462738244,,,TRUE
,,,,,,,,54.18855333,-2.473026895,,,TRUE
,,,,,,,,54.18792235,-2.474548514,,,TRUE
,,,,,,,,54.20352581,-2.45800726,,,TRUE
,,,,,,,,54.19964058,-2.462486415,,,TRUE
,,,,,,,,54.19970166,-2.46240555,,,TRUE
,,,,,,,,54.19966955,-2.462396482,,,TRUE
,,,,,,,,54.19930105,-2.463165748,,,TRUE
,,,,,,,,54.19972662,-2.463377402,,,TRUE
,,,,,,,,54.19923688,-2.463198117,,,TRUE
,,,,,,,,54.19963689,-2.462278303,,,TRUE
,,,,,,,,54.19499756,-2.464767436,,,TRUE
,,,,,,,,54.19417154,-2.463998767,,,TRUE
,,,,,,,,54.19410039,-2.463746561,,,TRUE
,,,,,,,,54.19452416,-2.464189796,,,TRUE
,,,,,,,,54.19468749,-2.464295447,,,TRUE
,,,,,,,,54.19484091,-2.464157758,,,TRUE
,,,,,,,,54.19418535,-2.464216213,,,TRUE
,,,,,,,,54.19396234,-2.463770105,,,TRUE
,,,,,,,,54.19396996,-2.46378914,,,TRUE
,,,,,,,,54.19103465,-2.465682316,,,TRUE
,,,,,,,,54.19134653,-2.464847597,,,TRUE
,,,,,,,,54.19599923,-2.462193193,,,TRUE
,,,,,,,,54.19612252,-2.462383649,,,TRUE
,,,,,,,,54.19607556,-2.462266931,,,TRUE
,,,,,,,,54.19572481,-2.462928743,,,TRUE
,,,,,,,,54.19597698,-2.462642676,,,TRUE
,,,,,,,,54.19534031,-2.464592128,,,TRUE
,,,,,,,,54.19587898,-2.46337472,,,TRUE
,,,,,,,,54.1964028,-2.463516098,,,TRUE
,,,,,,,,54.19504204,-2.466093032,,,TRUE
,,,,,,,,54.1951677,-2.465712559,,,TRUE
,,,,,,,,54.19540767,-2.465227191,,,TRUE
,,,,,,,,54.19308795,-2.464446236,,,TRUE
,,,,,,,,54.19231672,-2.464191535,,,TRUE
,,,,,,,,54.19205723,-2.4652807,,,TRUE
,,,,,,,,54.19210648,-2.465269833,,,TRUE
,,,,,,,,54.19142357,-2.465055024,,,TRUE
,,,,,,,,54.19194683,-2.465200715,,,TRUE
,,,,,,,,54.19143542,-2.46507469,,,TRUE
,,,,,,,,54.19193243,-2.464483049,,,TRUE
,,,,,,,,54.19184066,-2.46348377,,,TRUE
,,,,,,,,54.19160451,-2.462953283,,,TRUE
,,,,,,,,54.1905499,-2.465147495,,,TRUE
,,,,,,,,54.19067212,-2.464297723,,,TRUE
,,,,,,,,54.19089269,-2.465813505,,,TRUE
,,,,,,,,54.19092663,-2.464265838,,,TRUE
,,,,,,,,54.19173322,-2.465231685,,,TRUE
,,,,,,,,54.19351552,-2.463917656,,,TRUE
,,,,,,,,54.19180506,-2.46355849,,,TRUE
,,,,,,,,54.19275464,-2.464715662,,,TRUE
,,,,,,,,54.21619735,-2.518259486,,,TRUE
,,,,,,,,54.21622868,-2.518674544,,,TRUE
,,,,,,,,54.21474173,-2.52326355,,,TRUE
,,,,,,,,54.21475273,-2.522298227,,,TRUE
,,,,,,,,54.21221801,-2.519851275,,,TRUE
,,,,,,,,54.21314924,-2.51920368,,,TRUE
,,,,,,,,54.21305803,-2.519082396,,,TRUE
,,,,,,,,54.21277167,-2.519287352,,,TRUE
,,,,,,,,54.2127644,-2.520046354,,,TRUE
,,,,,,,,54.21296147,-2.519257719,,,TRUE
,,,,,,,,54.21327787,-2.519384602,,,TRUE
,,,,,,,,54.21322481,-2.519816134,,,TRUE
,,,,,,,,54.21206752,-2.519743183,,,TRUE
,,,,,,,,54.21265058,-2.519895547,,,TRUE
,,,,,,,,54.21166748,-2.519289637,,,TRUE
,,,,,,,,54.1826717,-2.485678052,,,TRUE
,,,,,,,,54.18731603,-2.476606849,,,TRUE
,,,,,,,,54.18419507,-2.486152817,,,TRUE
,,,,,,,,54.18734541,-2.486522307,,,TRUE
,,,,,,,,54.18715957,-2.485566206,,,TRUE
,,,,,,,,54.18717986,-2.485705277,,,TRUE
,,,,,,,,54.18710957,-2.485671728,,,TRUE
,,,,,,,,54.18503956,-2.476375397,,,TRUE
,,,,,,,,54.17982253,-2.479778677,,,TRUE
,,,,,,,,54.17981555,-2.479725153,,,TRUE
,,,,,,,,54.17984778,-2.479501505,,,TRUE
,,,,,,,,54.18676619,-2.480287691,,,TRUE
,,,,,,,,54.18793132,-2.482160489,,,TRUE
,,,,,,,,54.18793119,-2.482249141,,,TRUE
,,,,,,,,54.18796738,-2.482227752,,,TRUE
,,,,,,,,54.18801315,-2.48226891,,,TRUE
,,,,,,,,54.18788528,-2.482140611,,,TRUE
,,,,,,,,54.18775274,-2.481993168,,,TRUE
,,,,,,,,54.18775274,-2.481993089,,,TRUE
,,,,,,,,54.18775886,-2.481984223,,,TRUE
,,,,,,,,54.18388148,-2.487631665,,,TRUE
,,,,,,,,54.18405115,-2.487797001,,,TRUE
,,,,,,,,54.18381777,-2.487558711,,,TRUE
,,,,,,,,54.18365041,-2.487373821,,,TRUE
,,,,,,,,54.18370314,-2.487456147,,,TRUE
,,,,,,,,54.1836433,-2.48731451,,,TRUE
,,,,,,,,54.18361797,-2.48728402,,,TRUE
,,,,,,,,54.18362309,-2.487250791,,,TRUE
,,,,,,,,54.18362156,-2.487269034,,,TRUE
,,,,,,,,54.18010966,-2.482672156,,,TRUE
,,,,,,,,54.18017257,-2.482401578,,,TRUE
,,,,,,,,54.18771365,-2.484010835,,,TRUE
,,,,,,,,54.18757044,-2.482741233,,,TRUE
,,,,,,,,54.18760391,-2.482888542,,,TRUE
,,,,,,,,54.187641,-2.482936448,,,TRUE
,,,,,,,,54.1876124,-2.482874387,,,TRUE
,,,,,,,,54.18649565,-2.488404477,,,TRUE
,,,,,,,,54.18643744,-2.488352485,,,TRUE
,,,,,,,,54.18614789,-2.488915094,,,TRUE
,,,,,,,,54.1858799,-2.488734798,,,TRUE
,,,,,,,,54.18650737,-2.488512665,,,TRUE
,,,,,,,,54.18652372,-2.488903917,,,TRUE
,,,,,,,,54.1866056,-2.488752122,,,TRUE
,,,,,,,,54.18588454,-2.490613491,,,TRUE
,,,,,,,,54.1815263,-2.482914802,,,TRUE
,,,,,,,,54.18190454,-2.483645276,,,TRUE
,,,,,,,,54.18227932,-2.483807792,,,TRUE
,,,,,,,,54.1837352,-2.487211909,,,TRUE
,,,,,,,,54.18352147,-2.4866209,,,TRUE
,,,,,,,,54.18407353,-2.487824499,,,TRUE
,,,,,,,,54.18406112,-2.487477308,,,TRUE
,,,,,,,,54.18568881,-2.489608785,,,TRUE
,,,,,,,,54.18573508,-2.490270822,,,TRUE
,,,,,,,,54.18563817,-2.490075337,,,TRUE
,,,,,,,,54.18604126,-2.49118683,,,TRUE
,,,,,,,,54.18568055,-2.489979658,,,TRUE
,,,,,,,,54.18594824,-2.490871553,,,TRUE
,,,,,,,,54.18582475,-2.490519855,,,TRUE
,,,,,,,,54.18458755,-2.488433286,,,TRUE
,,,,,,,,54.18479886,-2.487374767,,,TRUE
,,,,,,,,54.18521814,-2.489393174,,,TRUE
,,,,,,,,54.18548396,-2.488480564,,,TRUE
,,,,,,,,54.18592814,-2.488066778,,,TRUE
,,,,,,,,54.18501966,-2.488525742,,,TRUE
,,,,,,,,54.18568644,-2.488222265,,,TRUE
,,,,,,,,54.18625741,-2.488946485,,,TRUE
,,,,,,,,54.18668615,-2.487199607,,,TRUE
,,,,,,,,54.18644731,-2.488882359,,,TRUE
,,,,,,,,54.18633764,-2.488821868,,,TRUE
,,,,,,,,54.18700974,-2.493255094,,,TRUE
,,,,,,,,54.18601358,-2.491251137,,,TRUE
,,,,,,,,54.18703295,-2.49440465,,,TRUE
,,,,,,,,54.1861081,-2.495454723,,,TRUE
,,,,,,,,54.18631579,-2.49424294,,,TRUE
,,,,,,,,54.18632962,-2.494413746,,,TRUE
,,,,,,,,54.18628347,-2.495038267,,,TRUE
,,,,,,,,54.1862072,-2.495141325,,,TRUE
,,,,,,,,54.18704977,-2.494200899,,,TRUE
,,,,,,,,54.18619297,-2.497474619,,,TRUE
,,,,,,,,54.18658726,-2.497032035,,,TRUE
,,,,,,,,54.18669279,-2.494261279,,,TRUE
,,,,,,,,54.18661661,-2.497100534,,,TRUE
,,,,,,,,54.18695598,-2.498146484,,,TRUE
,,,,,,,,54.18657506,-2.499156286,,,TRUE
,,,,,,,,54.18648789,-2.496733471,,,TRUE
,,,,,,,,54.1869755,-2.50062941,,,TRUE
,,,,,,,,54.18620774,-2.493003368,,,TRUE
,,,,,,,,54.18601286,-2.492431215,,,TRUE
,,,,,,,,54.18713146,-2.49432786,,,TRUE
,,,,,,,,54.18607218,-2.491251056,,,TRUE
,,,,,,,,54.18615913,-2.492602561,,,TRUE
,,,,,,,,54.18660975,-2.492736024,,,TRUE
,,,,,,,,54.18690503,-2.493637252,,,TRUE
,,,,,,,,54.187094,-2.492761168,,,TRUE
,,,,,,,,54.18700687,-2.493141514,,,TRUE
,,,,,,,,54.18704018,-2.493137598,,,TRUE
,,,,,,,,54.18704403,-2.493559279,,,TRUE
,,,,,,,,54.18823361,-2.492165211,,,TRUE
,,,,,,,,54.18803762,-2.492594399,,,TRUE
,,,,,,,,54.1881519,-2.492726755,,,TRUE
,,,,,,,,54.18809286,-2.491721826,,,TRUE
,,,,,,,,54.18806479,-2.492364706,,,TRUE
,,,,,,,,54.18809845,-2.491359022,,,TRUE
,,,,,,,,54.18787301,-2.491779761,,,TRUE
,,,,,,,,54.18808498,-2.49147526,,,TRUE
,,,,,,,,54.18804503,-2.491712472,,,TRUE
,,,,,,,,54.18821372,-2.4915665,,,TRUE
,,,,,,,,54.18844727,-2.491712095,,,TRUE
,,,,,,,,54.18836547,-2.492021372,,,TRUE
,,,,,,,,54.18848386,-2.492288376,,,TRUE
,,,,,,,,54.18866069,-2.492334059,,,TRUE
,,,,,,,,54.18848864,-2.491683829,,,TRUE
,,,,,,,,54.18843941,-2.492319751,,,TRUE
,,,,,,,,54.18838751,-2.492064796,,,TRUE
,,,,,,,,54.19996237,-2.511813155,,,TRUE
,,,,,,,,54.19247929,-2.503187798,,,TRUE
,,,,,,,,54.1924754,-2.503215304,,,TRUE
,,,,,,,,54.19240457,-2.503122591,,,TRUE
,,,,,,,,54.19233547,-2.502783381,,,TRUE
,,,,,,,,54.1923239,-2.502834725,,,TRUE
,,,,,,,,54.19230045,-2.502811032,,,TRUE
,,,,,,,,54.19219852,-2.50289094,,,TRUE
,,,,,,,,54.19228984,-2.502828329,,,TRUE
,,,,,,,,54.19226814,-2.502917082,,,TRUE
,,,,,,,,54.19230437,-2.50299565,,,TRUE
,,,,,,,,54.19226157,-2.502940469,,,TRUE
,,,,,,,,54.19232329,-2.502902144,,,TRUE
,,,,,,,,54.19232095,-2.503188881,,,TRUE
,,,,,,,,54.1923171,-2.503194204,,,TRUE
,,,,,,,,54.19228082,-2.503059623,,,TRUE
,,,,,,,,54.18871032,-2.500828566,,,TRUE
,,,,,,,,54.18827023,-2.501748662,,,TRUE
,,,,,,,,54.18961251,-2.498881184,,,TRUE
,,,,,,,,54.1893814,-2.49988734,,,TRUE
,,,,,,,,54.18966933,-2.498758506,,,TRUE
,,,,,,,,54.18950833,-2.498300864,,,TRUE
,,,,,,,,54.18965134,-2.498586779,,,TRUE
,,,,,,,,54.18923802,-2.499501667,,,TRUE
,,,,,,,,54.18933544,-2.499701458,,,TRUE
,,,,,,,,54.18924908,-2.499686163,,,TRUE
,,,,,,,,54.18872161,-2.500883797,,,TRUE
,,,,,,,,54.18839374,-2.501846855,,,TRUE
,,,,,,,,54.18738677,-2.501485986,,,TRUE
,,,,,,,,54.18764651,-2.501687197,,,TRUE
,,,,,,,,54.18814532,-2.501460476,,,TRUE
,,,,,,,,54.18842792,-2.500860018,,,TRUE
,,,,,,,,54.18832601,-2.502253296,,,TRUE
,,,,,,,,54.19149726,-2.504568967,,,TRUE
,,,,,,,,54.18920348,-2.501771422,,,TRUE
,,,,,,,,54.18941331,-2.502275477,,,TRUE
,,,,,,,,54.19062821,-2.502256961,,,TRUE
,,,,,,,,54.19022215,-2.500827003,,,TRUE
,,,,,,,,54.19045243,-2.50132269,,,TRUE
,,,,,,,,54.19202652,-2.503846621,,,TRUE
,,,,,,,,54.18798639,-2.501014439,,,TRUE
,,,,,,,,54.1885704,-2.502047264,,,TRUE
,,,,,,,,54.18825596,-2.501570697,,,TRUE
,,,,,,,,54.18845762,-2.501355758,,,TRUE
,,,,,,,,54.18870089,-2.502393221,,,TRUE
,,,,,,,,54.18853007,-2.501882196,,,TRUE
,,,,,,,,54.19241784,-2.503436278,,,TRUE
,,,,,,,,54.19236473,-2.503611724,,,TRUE
,,,,,,,,54.19237571,-2.503539418,,,TRUE
,,,,,,,,54.19235812,-2.503582042,,,TRUE
,,,,,,,,54.19233437,-2.506039946,,,TRUE
,,,,,,,,54.1925218,-2.506651236,,,TRUE
,,,,,,,,54.19297004,-2.506168013,,,TRUE
,,,,,,,,54.1928812,-2.50612209,,,TRUE
,,,,,,,,54.19299915,-2.506093417,,,TRUE
,,,,,,,,54.19289891,-2.506412701,,,TRUE
,,,,,,,,54.19242108,-2.50663918,,,TRUE
,,,,,,,,54.19255087,-2.506397148,,,TRUE
,,,,,,,,54.19258882,-2.505823696,,,TRUE
,,,,,,,,54.19237476,-2.505183857,,,TRUE
,,,,,,,,54.19305899,-2.504504947,,,TRUE
,,,,,,,,54.19255529,-2.504530612,,,TRUE
,,,,,,,,54.19262327,-2.504528231,,,TRUE
,,,,,,,,54.19242208,-2.505490495,,,TRUE
,,,,,,,,54.19208188,-2.505536219,,,TRUE
,,,,,,,,54.19247796,-2.506875582,,,TRUE
,,,,,,,,54.19272572,-2.506896941,,,TRUE
,,,,,,,,54.19285006,-2.504555085,,,TRUE
,,,,,,,,54.19263047,-2.504175537,,,TRUE
,,,,,,,,54.19249004,-2.50423715,,,TRUE
,,,,,,,,54.19253708,-2.506580331,,,TRUE
,,,,,,,,54.19235924,-2.505322254,,,TRUE
,,,,,,,,54.19266623,-2.505060549,,,TRUE
,,,,,,,,54.192131,-2.505629042,,,TRUE
,,,,,,,,54.19081581,-2.501928629,,,TRUE
,,,,,,,,54.19038955,-2.502024909,,,TRUE
,,,,,,,,54.18971052,-2.502649115,,,TRUE
,,,,,,,,54.18907854,-2.502766338,,,TRUE
,,,,,,,,54.18476146,-2.496633281,,,TRUE
,,,,,,,,54.18524903,-2.49693177,,,TRUE
,,,,,,,,54.18515133,-2.496842683,,,TRUE
,,,,,,,,54.1855874,-2.496285242,,,TRUE
,,,,,,,,54.18578003,-2.495497954,,,TRUE
,,,,,,,,54.18591049,-2.495328954,,,TRUE
,,,,,,,,54.18604555,-2.495418877,,,TRUE
,,,,,,,,54.18580454,-2.495706178,,,TRUE
,,,,,,,,54.19408181,-2.509164011,,,TRUE
,,,,,,,,54.19409582,-2.508850273,,,TRUE
,,,,,,,,54.19423301,-2.508870409,,,TRUE
,,,,,,,,54.19416118,-2.50881439,,,TRUE
,,,,,,,,54.19410459,-2.509173091,,,TRUE
,,,,,,,,54.19415183,-2.508468937,,,TRUE
,,,,,,,,54.19370366,-2.507010532,,,TRUE
,,,,,,,,54.19371464,-2.506949121,,,TRUE
,,,,,,,,54.19399135,-2.507834544,,,TRUE
,,,,,,,,54.19396709,-2.507903149,,,TRUE
,,,,,,,,54.19380507,-2.50788711,,,TRUE
,,,,,,,,54.19397488,-2.507942471,,,TRUE
,,,,,,,,54.19412593,-2.508197395,,,TRUE
,,,,,,,,54.19411669,-2.507343834,,,TRUE
,,,,,,,,54.1942528,-2.508137394,,,TRUE
,,,,,,,,54.19401502,-2.507697313,,,TRUE
,,,,,,,,54.19407811,-2.505922565,,,TRUE
,,,,,,,,54.19396418,-2.505956204,,,TRUE
,,,,,,,,54.19373169,-2.506146865,,,TRUE
,,,,,,,,54.19379322,-2.505885019,,,TRUE
,,,,,,,,54.19387083,-2.506364833,,,TRUE
,,,,,,,,54.1937862,-2.50687015,,,TRUE
,,,,,,,,54.1938314,-2.506965173,,,TRUE
,,,,,,,,54.19383967,-2.50685242,,,TRUE
,,,,,,,,54.19381382,-2.506522422,,,TRUE
,,,,,,,,54.19374183,-2.506585122,,,TRUE
,,,,,,,,54.19392133,-2.506342284,,,TRUE
,,,,,,,,54.19399013,-2.506015957,,,TRUE
,,,,,,,,54.19400892,-2.50598715,,,TRUE
,,,,,,,,54.19403376,-2.506084135,,,TRUE
,,,,,,,,54.19406727,-2.505943519,,,TRUE
,,,,,,,,54.19392618,-2.506021917,,,TRUE
,,,,,,,,54.1937866,-2.506130604,,,TRUE
,,,,,,,,54.19383133,-2.506331934,,,TRUE
,,,,,,,,54.19387311,-2.506159435,,,TRUE
,,,,,,,,54.19383055,-2.506342635,,,TRUE
,,,,,,,,54.19363473,-2.507164197,,,TRUE
,,,,,,,,54.19354706,-2.506992334,,,TRUE
,,,,,,,,54.19703078,-2.50490438,,,TRUE
,,,,,,,,54.19692617,-2.504786224,,,TRUE
,,,,,,,,54.19707066,-2.506790264,,,TRUE
,,,,,,,,54.19698283,-2.506875171,,,TRUE
,,,,,,,,54.19678572,-2.506542968,,,TRUE
,,,,,,,,54.19689553,-2.506375841,,,TRUE
,,,,,,,,54.1969839,-2.504857138,,,TRUE
,,,,,,,,54.19658491,-2.506899285,,,TRUE
,,,,,,,,54.19633562,-2.507078198,,,TRUE
,,,,,,,,54.19635628,-2.507036592,,,TRUE
,,,,,,,,54.19638785,-2.507004497,,,TRUE
,,,,,,,,54.19658846,-2.506940983,,,TRUE
,,,,,,,,54.19659314,-2.507072798,,,TRUE
,,,,,,,,54.19636315,-2.506560913,,,TRUE
,,,,,,,,54.19659598,-2.506925229,,,TRUE
,,,,,,,,54.19661874,-2.506899463,,,TRUE
,,,,,,,,54.19653344,-2.506781949,,,TRUE
,,,,,,,,54.19612634,-2.506236862,,,TRUE
,,,,,,,,54.19482202,-2.505897652,,,TRUE
,,,,,,,,54.1948829,-2.506444791,,,TRUE
,,,,,,,,54.19479169,-2.506740873,,,TRUE
,,,,,,,,54.19486558,-2.506368266,,,TRUE
,,,,,,,,54.19502275,-2.506208546,,,TRUE
,,,,,,,,54.19499005,-2.506814864,,,TRUE
,,,,,,,,54.19489681,-2.506092208,,,TRUE
,,,,,,,,54.19482127,-2.506379355,,,TRUE
,,,,,,,,54.19482183,-2.506005575,,,TRUE
,,,,,,,,54.19483004,-2.505771572,,,TRUE
,,,,,,,,54.20800408,-2.509974609,,,TRUE
,,,,,,,,54.21444519,-2.515621153,,,TRUE
,,,,,,,,54.21444054,-2.515612484,,,TRUE
,,,,,,,,54.2144822,-2.515653509,,,TRUE
,,,,,,,,54.21094544,-2.513945311,,,TRUE
,,,,,,,,54.21086592,-2.513797491,,,TRUE
,,,,,,,,54.21070754,-2.513915022,,,TRUE
,,,,,,,,54.21054431,-2.513842569,,,TRUE
,,,,,,,,54.21039959,-2.513863668,,,TRUE
,,,,,,,,54.21034256,-2.513921869,,,TRUE
,,,,,,,,54.21029763,-2.513825361,,,TRUE
,,,,,,,,54.21035987,-2.513818219,,,TRUE
,,,,,,,,54.21037145,-2.513703629,,,TRUE
,,,,,,,,54.21032852,-2.513617476,,,TRUE
,,,,,,,,54.21025498,-2.513501989,,,TRUE
,,,,,,,,54.21013077,-2.513374971,,,TRUE
,,,,,,,,54.21014251,-2.513468155,,,TRUE
,,,,,,,,54.21003016,-2.513474432,,,TRUE
,,,,,,,,54.20990944,-2.513467843,,,TRUE
,,,,,,,,54.2098433,-2.513457409,,,TRUE
,,,,,,,,54.20976078,-2.513514942,,,TRUE
,,,,,,,,54.20967164,-2.513491477,,,TRUE
,,,,,,,,54.20951529,-2.513316386,,,TRUE
,,,,,,,,54.20815705,-2.51439944,,,TRUE
,,,,,,,,54.20820896,-2.514442654,,,TRUE
,,,,,,,,54.20822839,-2.514183335,,,TRUE
,,,,,,,,54.20722825,-2.516228935,,,TRUE
,,,,,,,,54.20744458,-2.515580216,,,TRUE
,,,,,,,,54.20655814,-2.503881199,,,TRUE
,,,,,,,,54.206758,-2.505401913,,,TRUE
,,,,,,,,54.20589254,-2.513305721,,,TRUE
,,,,,,,,54.20736558,-2.509861835,,,TRUE
,,,,,,,,54.20690212,-2.508362592,,,TRUE
,,,,,,,,54.20626148,-2.512094873,,,TRUE
,,,,,,,,54.20703057,-2.510335408,,,TRUE
,,,,,,,,54.20695323,-2.508998896,,,TRUE
,,,,,,,,54.20585614,-2.505527257,,,TRUE
,,,,,,,,54.20827307,-2.508106473,,,TRUE
,,,,,,,,54.20913391,-2.507898623,,,TRUE
,,,,,,,,54.20839848,-2.508539288,,,TRUE
,,,,,,,,54.20861904,-2.50796569,,,TRUE
,,,,,,,,54.20707335,-2.511373397,,,TRUE
,,,,,,,,54.20723643,-2.51257098,,,TRUE
,,,,,,,,54.20715771,-2.511914295,,,TRUE
,,,,,,,,54.20480058,-2.509071129,,,TRUE
,,,,,,,,54.20490785,-2.508045375,,,TRUE
,,,,,,,,54.20563265,-2.509959763,,,TRUE
,,,,,,,,54.20514417,-2.509526878,,,TRUE
,,,,,,,,54.20467737,-2.50913069,,,TRUE
,,,,,,,,54.20532389,-2.506578423,,,TRUE
,,,,,,,,54.20462972,-2.507374073,,,TRUE
,,,,,,,,54.20471991,-2.508300954,,,TRUE
,,,,,,,,54.20487227,-2.507919622,,,TRUE
,,,,,,,,54.20502952,-2.507099377,,,TRUE
,,,,,,,,54.20416454,-2.509330393,,,TRUE
,,,,,,,,54.20436488,-2.50870181,,,TRUE
,,,,,,,,54.20464203,-2.50874379,,,TRUE
,,,,,,,,54.20511367,-2.510844141,,,TRUE
,,,,,,,,54.20013429,-2.50757901,,,TRUE
,,,,,,,,54.20051648,-2.508081759,,,TRUE
,,,,,,,,54.20099283,-2.50877958,,,TRUE
,,,,,,,,54.20118939,-2.508325551,,,TRUE
,,,,,,,,54.20037228,-2.506588339,,,TRUE
,,,,,,,,54.20025054,-2.506173847,,,TRUE
,,,,,,,,54.20020609,-2.507061074,,,TRUE
,,,,,,,,54.20050609,-2.507090834,,,TRUE
,,,,,,,,54.20034958,-2.506608543,,,TRUE
,,,,,,,,54.20050928,-2.507762812,,,TRUE
,,,,,,,,54.20033334,-2.506811879,,,TRUE
,,,,,,,,54.1997155,-2.50714159,,,TRUE
,,,,,,,,54.19947246,-2.506555601,,,TRUE
,,,,,,,,54.19987728,-2.506814909,,,TRUE
,,,,,,,,54.19960901,-2.505522309,,,TRUE
,,,,,,,,54.19983479,-2.505650191,,,TRUE
,,,,,,,,54.19986746,-2.505731261,,,TRUE
,,,,,,,,54.2000024,-2.505414562,,,TRUE
,,,,,,,,54.19863724,-2.511063684,,,TRUE
,,,,,,,,54.19853908,-2.511243364,,,TRUE
,,,,,,,,54.20000764,-2.513939291,,,TRUE
,,,,,,,,54.2002382,-2.513452028,,,TRUE
,,,,,,,,54.19961619,-2.509533841,,,TRUE
,,,,,,,,54.20040143,-2.511001603,,,TRUE
,,,,,,,,54.20041115,-2.51097047,,,TRUE
,,,,,,,,54.19645996,-2.508879758,,,TRUE
,,,,,,,,54.19645047,-2.509155209,,,TRUE
,,,,,,,,54.19925174,-2.511283871,,,TRUE
,,,,,,,,54.1992555,-2.511113529,,,TRUE
,,,,,,,,54.19924476,-2.510996542,,,TRUE
,,,,,,,,54.19922486,-2.510620226,,,TRUE
,,,,,,,,54.19919496,-2.510414201,,,TRUE
,,,,,,,,54.19669493,-2.50917894,,,TRUE
,,,,,,,,54.19663011,-2.509336789,,,TRUE
,,,,,,,,54.19686256,-2.508368451,,,TRUE
,,,,,,,,54.19671052,-2.508915272,,,TRUE
,,,,,,,,54.19662913,-2.509346324,,,TRUE
,,,,,,,,54.19632639,-2.509371118,,,TRUE
,,,,,,,,54.20099758,-2.511858551,,,TRUE
,,,,,,,,54.2011911,-2.512868293,,,TRUE
,,,,,,,,54.2012397,-2.512178674,,,TRUE
,,,,,,,,54.201094,-2.512450725,,,TRUE
,,,,,,,,54.20058251,-2.511529175,,,TRUE
,,,,,,,,54.20030974,-2.512019751,,,TRUE
,,,,,,,,54.20073916,-2.509920763,,,TRUE
,,,,,,,,54.20075108,-2.510439885,,,TRUE
,,,,,,,,54.20045672,-2.510262596,,,TRUE
,,,,,,,,54.2010008,-2.511013383,,,TRUE
,,,,,,,,54.200813,-2.510618322,,,TRUE
,,,,,,,,54.20058913,-2.5103451,,,TRUE
,,,,,,,,54.20050793,-2.510171216,,,TRUE
,,,,,,,,54.20108924,-2.512040494,,,TRUE
,,,,,,,,54.2011203,-2.512529318,,,TRUE
,,,,,,,,54.20080983,-2.512789243,,,TRUE
,,,,,,,,54.19892822,-2.509236326,,,TRUE
,,,,,,,,54.19585424,-2.508369329,,,TRUE
,,,,,,,,54.19612677,-2.508878298,,,TRUE
,,,,,,,,54.19749496,-2.509919565,,,TRUE
,,,,,,,,54.20045267,-2.511132241,,,TRUE
,,,,,,,,54.19934245,-2.5100612,,,TRUE
,,,,,,,,54.20073452,-2.516537816,,,TRUE
,,,,,,,,54.20115364,-2.516220536,,,TRUE
,,,,,,,,54.19833236,-2.511326758,,,TRUE
,,,,,,,,54.19744796,-2.512594722,,,TRUE
,,,,,,,,54.19747387,-2.51248258,,,TRUE
,,,,,,,,54.19693629,-2.512651618,,,TRUE
,,,,,,,,54.19697837,-2.512724761,,,TRUE
,,,,,,,,54.19847007,-2.512058276,,,TRUE
,,,,,,,,54.19831432,-2.512379373,,,TRUE
,,,,,,,,54.1982651,-2.512053447,,,TRUE
,,,,,,,,54.19815327,-2.512275284,,,TRUE
,,,,,,,,54.19799497,-2.511738241,,,TRUE
,,,,,,,,54.19750518,-2.512892777,,,TRUE
,,,,,,,,54.19642994,-2.510720714,,,TRUE
,,,,,,,,54.20162645,-2.513877585,,,TRUE
,,,,,,,,54.19971602,-2.516534371,,,TRUE
,,,,,,,,54.19959564,-2.516360992,,,TRUE
,,,,,,,,54.19982941,-2.516020242,,,TRUE
,,,,,,,,54.19987669,-2.51599386,,,TRUE
,,,,,,,,54.20010571,-2.51608969,,,TRUE
,,,,,,,,54.20047714,-2.51456635,,,TRUE
,,,,,,,,54.20001236,-2.50996731,,,TRUE
,,,,,,,,54.19842163,-2.507311263,,,TRUE
,,,,,,,,54.1984894,-2.507336548,,,TRUE
,,,,,,,,54.1982169,-2.507351587,,,TRUE
,,,,,,,,54.19849583,-2.507456464,,,TRUE
,,,,,,,,54.19809193,-2.507696405,,,TRUE
,,,,,,,,54.1983709,-2.507791325,,,TRUE
,,,,,,,,54.19810884,-2.508664013,,,TRUE
,,,,,,,,54.19986767,-2.511180656,,,TRUE
,,,,,,,,54.199427,-2.512330108,,,TRUE
,,,,,,,,54.19948507,-2.511745804,,,TRUE
,,,,,,,,54.19969385,-2.511669243,,,TRUE
,,,,,,,,54.19944802,-2.512202181,,,TRUE
,,,,,,,,54.21551573,-2.51032841,,,TRUE
,,,,,,,,54.21693235,-2.517561903,,,TRUE
,,,,,,,,54.21850309,-2.508521691,,,TRUE
,,,,,,,,54.21844752,-2.508443283,,,TRUE
,,,,,,,,54.21836322,-2.50815286,,,TRUE
,,,,,,,,54.21777373,-2.507534671,,,TRUE
,,,,,,,,54.21802638,-2.507802564,,,TRUE
,,,,,,,,54.1823371,-2.459112461,,,TRUE
,,,,,,,,54.18085555,-2.461252674,,,TRUE
,,,,,,,,54.18099513,-2.461209279,,,TRUE
,,,,,,,,54.18095326,-2.461195055,,,TRUE
,,,,,,,,54.18106352,-2.461222146,,,TRUE
,,,,,,,,54.18116654,-2.461110028,,,TRUE
,,,,,,,,54.18155418,-2.460523538,,,TRUE
,,,,,,,,54.18527341,-2.454069138,,,TRUE
,,,,,,,,54.18493897,-2.453107228,,,TRUE
,,,,,,,,54.18461276,-2.45292188,,,TRUE
,,,,,,,,54.18475343,-2.452950799,,,TRUE
,,,,,,,,54.18433905,-2.452880292,,,TRUE
,,,,,,,,54.15430827,-2.41552918,,,TRUE
,,,,,,,,54.15437572,-2.415473439,,,TRUE
,,,,,,,,54.15445178,-2.415343097,,,TRUE
,,,,,,,,54.15449569,-2.415294541,,,TRUE
,,,,,,,,54.15455038,-2.415320429,,,TRUE
,,,,,,,,54.15453078,-2.415295698,,,TRUE
,,,,,,,,54.15453294,-2.415348766,,,TRUE
,,,,,,,,54.15448851,-2.415383964,,,TRUE
,,,,,,,,54.15450307,-2.415346032,,,TRUE
,,,,,,,,54.15453729,-2.415263789,,,TRUE
,,,,,,,,54.15479286,-2.415354016,,,TRUE
,,,,,,,,54.15474646,-2.415330375,,,TRUE
,,,,,,,,54.15470304,-2.415245039,,,TRUE
,,,,,,,,54.15464506,-2.415195052,,,TRUE
,,,,,,,,54.15441999,-2.415410606,,,TRUE
,,,,,,,,54.15429384,-2.415405923,,,TRUE
,,,,,,,,54.15433819,-2.415404318,,,TRUE
,,,,,,,,54.15434687,-2.415386605,,,TRUE
,,,,,,,,54.14777095,-2.41850707,,,TRUE
,,,,,,,,54.14781522,-2.418458904,,,TRUE
,,,,,,,,54.14774896,-2.418417791,,,TRUE
,,,,,,,,54.14769767,-2.418368129,,,TRUE
,,,,,,,,54.14775132,-2.418423702,,,TRUE
,,,,,,,,54.14778714,-2.418147498,,,TRUE
,,,,,,,,54.15514646,-2.437709084,,,TRUE
,,,,,,,,54.15802865,-2.443603266,,,TRUE
,,,,,,,,54.15808324,-2.444242231,,,TRUE
,,,,,,,,54.15841638,-2.44553466,,,TRUE
,,,,,,,,54.15898357,-2.446851034,,,TRUE
,,,,,,,,54.15899677,-2.447120672,,,TRUE
,,,,,,,,54.14670682,-2.412641334,,,TRUE
,,,,,,,,54.14677924,-2.413203614,,,TRUE
,,,,,,,,54.14675242,-2.413193531,,,TRUE
,,,,,,,,54.14686919,-2.413161778,,,TRUE
,,,,,,,,54.14696714,-2.413222575,,,TRUE
,,,,,,,,54.14657711,-2.412749503,,,TRUE
,,,,,,,,54.14665801,-2.412876373,,,TRUE
,,,,,,,,54.14690677,-2.413109922,,,TRUE
,,,,,,,,54.14669995,-2.412975267,,,TRUE
,,,,,,,,54.14667198,-2.412897821,,,TRUE
,,,,,,,,54.14679108,-2.413153344,,,TRUE
,,,,,,,,54.14687742,-2.413199615,,,TRUE
,,,,,,,,54.14680806,-2.412706429,,,TRUE
,,,,,,,,54.14688366,-2.412653341,,,TRUE
,,,,,,,,54.14686371,-2.41274045,,,TRUE
,,,,,,,,54.14665637,-2.412810734,,,TRUE
,,,,,,,,54.14786337,-2.375424779,,,TRUE
,,,,,,,,54.14784122,-2.375425682,,,TRUE
,,,,,,,,54.14778619,-2.375266321,,,TRUE
,,,,,,,,54.14777607,-2.375180073,,,TRUE
,,,,,,,,54.14781935,-2.374979509,,,TRUE
,,,,,,,,54.14774084,-2.374550972,,,TRUE
,,,,,,,,54.14771275,-2.374403003,,,TRUE
,,,,,,,,54.14776635,-2.374454522,,,TRUE
,,,,,,,,54.14790206,-2.374653575,,,TRUE
,,,,,,,,54.12632811,-2.388116063,,,TRUE
,,,,,,,,54.12591744,-2.387654293,,,TRUE
,,,,,,,,54.1255478,-2.387349644,,,TRUE
,,,,,,,,54.21046497,-2.4512562,,,TRUE
,,,,,,,,54.21047232,-2.451242705,,,TRUE
,,,,,,,,54.21049782,-2.451211405,,,TRUE
,,,,,,,,54.21051156,-2.4512162,,,TRUE
,,,,,,,,54.21051944,-2.451202685,,,TRUE
,,,,,,,,54.21053003,-2.45119495,,,TRUE
,,,,,,,,54.21054221,-2.45118449,,,TRUE
,,,,,,,,54.2105505,-2.451196955,,,TRUE
,,,,,,,,54.2105512,-2.45118444,,,TRUE
,,,,,,,,54.21055996,-2.451163765,,,TRUE
,,,,,,,,54.21057524,-2.451104765,,,TRUE
,,,,,,,,54.2105779,-2.451077605,,,TRUE
,,,,,,,,54.21062325,-2.450987075,,,TRUE
,,,,,,,,54.21066268,-2.450897235,,,TRUE
,,,,,,,,54.21067563,-2.450862975,,,TRUE
,,,,,,,,54.21076161,-2.45077684,,,TRUE
,,,,,,,,54.21080819,-2.450693925,,,TRUE
,,,,,,,,54.20672045,-2.45300233,,,TRUE
,,,,,,,,54.20660813,-2.453199925,,,TRUE
,,,,,,,,54.20666126,-2.452969845,,,TRUE
,,,,,,,,54.20659789,-2.453085975,,,TRUE
,,,,,,,,54.20662965,-2.453386895,,,TRUE
,,,,,,,,54.20658452,-2.45325439,,,TRUE
,,,,,,,,54.20659544,-2.45331409,,,TRUE
,,,,,,,,54.20668268,-2.453494095,,,TRUE
,,,,,,,,54.20674125,-2.453711565,,,TRUE
,,,,,,,,54.2067569,-2.45371187,,,TRUE
,,,,,,,,54.2067881,-2.45370502,,,TRUE
,,,,,,,,54.20679491,-2.4536889,,,TRUE
,,,,,,,,54.20676909,-2.45362449,,,TRUE
,,,,,,,,54.20675288,-2.4535868,,,TRUE
,,,,,,,,54.20670349,-2.453543595,,,TRUE
,,,,,,,,54.20661749,-2.45336257,,,TRUE
,,,,,,,,54.20659413,-2.453215435,,,TRUE
,,,,,,,,54.2066632,-2.45311602,,,TRUE
,,,,,,,,54.19236362,-2.468862115,,,TRUE
,,,,,,,,54.1923591,-2.468831355,,,TRUE
,,,,,,,,54.19235981,-2.46882589,,,TRUE
,,,,,,,,54.19236524,-2.468810395,,,TRUE
,,,,,,,,54.19238005,-2.46879195,,,TRUE
,,,,,,,,54.19239275,-2.4687865,,,TRUE
,,,,,,,,54.19239692,-2.468770765,,,TRUE
,,,,,,,,54.19243427,-2.46877545,,,TRUE
,,,,,,,,54.19242708,-2.46873849,,,TRUE
,,,,,,,,54.19244005,-2.468678055,,,TRUE
,,,,,,,,54.19245069,-2.468659585,,,TRUE
,,,,,,,,54.19244221,-2.468622255,,,TRUE
,,,,,,,,54.1924147,-2.4685112,,,TRUE
,,,,,,,,54.19245173,-2.468469645,,,TRUE
,,,,,,,,54.19241151,-2.46839094,,,TRUE
,,,,,,,,54.19241054,-2.46839114,,,TRUE
,,,,,,,,54.1924502,-2.46836998,,,TRUE
,,,,,,,,54.19248716,-2.46833529,,,TRUE
,,,,,,,,54.19250218,-2.468345825,,,TRUE
,,,,,,,,54.19255191,-2.46838873,,,TRUE
,,,,,,,,54.19258122,-2.46833531,,,TRUE
,,,,,,,,54.19260663,-2.468307755,,,TRUE
,,,,,,,,54.19260921,-2.46829101,,,TRUE
,,,,,,,,54.19261664,-2.46828745,,,TRUE
,,,,,,,,54.19263459,-2.46825373,,,TRUE
,,,,,,,,54.19265368,-2.46824827,,,TRUE
,,,,,,,,54.19272666,-2.468192805,,,TRUE
,,,,,,,,54.19273908,-2.46819388,,,TRUE
,,,,,,,,54.19274114,-2.468178905,,,TRUE
,,,,,,,,54.19275936,-2.468175045,,,TRUE
,,,,,,,,54.19280368,-2.46812766,,,TRUE
,,,,,,,,54.19282503,-2.468124505,,,TRUE
,,,,,,,,54.19283279,-2.46809752,,,TRUE
,,,,,,,,54.19286014,-2.468085235,,,TRUE
,,,,,,,,54.19286098,-2.46808012,,,TRUE
,,,,,,,,54.19290937,-2.468052485,,,TRUE
,,,,,,,,54.19294874,-2.46803603,,,TRUE
,,,,,,,,54.19302003,-2.46800898,,,TRUE
,,,,,,,,54.19304829,-2.467996925,,,TRUE
,,,,,,,,54.19308924,-2.467950745,,,TRUE
,,,,,,,,54.19310767,-2.467943235,,,TRUE
,,,,,,,,54.19311025,-2.467923615,,,TRUE
,,,,,,,,54.19315403,-2.46792795,,,TRUE
,,,,,,,,54.19317219,-2.46790864,,,TRUE
,,,,,,,,54.19323035,-2.4678884,,,TRUE
,,,,,,,,54.19324625,-2.467886775,,,TRUE
,,,,,,,,54.19330607,-2.467841635,,,TRUE
,,,,,,,,54.1933435,-2.467813415,,,TRUE
,,,,,,,,54.193348,-2.467756545,,,TRUE
,,,,,,,,54.19343243,-2.467718055,,,TRUE
,,,,,,,,54.19346137,-2.467692675,,,TRUE
,,,,,,,,54.19348068,-2.467676825,,,TRUE
,,,,,,,,54.19349,-2.46766548,,,TRUE
,,,,,,,,54.20623356,-2.455253735,,,TRUE
,,,,,,,,54.20621995,-2.45529067,,,TRUE
,,,,,,,,54.20621029,-2.455308775,,,TRUE
,,,,,,,,54.20620382,-2.455325425,,,TRUE
,,,,,,,,54.20618571,-2.45535628,,,TRUE
,,,,,,,,54.20626103,-2.455238435,,,TRUE
,,,,,,,,54.20623428,-2.45525608,,,TRUE
,,,,,,,,54.20626111,-2.455238245,,,TRUE
,,,,,,,,54.20627154,-2.455205815,,,TRUE
,,,,,,,,54.20624298,-2.45527089,,,TRUE
,,,,,,,,54.20623892,-2.4552802,,,TRUE
,,,,,,,,54.20624921,-2.455258295,,,TRUE
,,,,,,,,54.20628464,-2.45525816,,,TRUE
,,,,,,,,54.20628182,-2.45527234,,,TRUE
,,,,,,,,54.20628464,-2.45525816,,,TRUE
,,,,,,,,54.20627274,-2.45525667,,,TRUE
,,,,,,,,54.20623714,-2.455273265,,,TRUE
,,,,,,,,54.20625052,-2.45527235,,,TRUE
,,,,,,,,54.2064024,-2.45536905,,,TRUE
,,,,,,,,54.20637702,-2.455397835,,,TRUE
,,,,,,,,54.20635766,-2.455413895,,,TRUE
,,,,,,,,54.20633537,-2.455425765,,,TRUE
,,,,,,,,54.20631178,-2.45539356,,,TRUE
,,,,,,,,54.20629243,-2.455361,,,TRUE
,,,,,,,,54.20626602,-2.455350815,,,TRUE
,,,,,,,,54.2062607,-2.455316375,,,TRUE
,,,,,,,,54.20627077,-2.45529029,,,TRUE
,,,,,,,,54.20628099,-2.4552642,,,TRUE
,,,,,,,,54.20657623,-2.45539015,,,TRUE
,,,,,,,,54.2065729,-2.45538478,,,TRUE
,,,,,,,,54.20655302,-2.455369675,,,TRUE
,,,,,,,,54.20654421,-2.455375705,,,TRUE
,,,,,,,,54.20651665,-2.455392275,,,TRUE
,,,,,,,,54.20651627,-2.455356575,,,TRUE
,,,,,,,,54.20650435,-2.45534386,,,TRUE
,,,,,,,,54.20648826,-2.45536399,,,TRUE
,,,,,,,,54.20648276,-2.455357715,,,TRUE
,,,,,,,,54.20647339,-2.45533963,,,TRUE
,,,,,,,,54.20645398,-2.45534432,,,TRUE
,,,,,,,,54.2064435,-2.45535106,,,TRUE
,,,,,,,,54.20643224,-2.455348685,,,TRUE
,,,,,,,,54.20642134,-2.45535185,,,TRUE
,,,,,,,,54.20640223,-2.455368395,,,TRUE
,,,,,,,,54.20663517,-2.455412035,,,TRUE
,,,,,,,,54.20662173,-2.455408495,,,TRUE
,,,,,,,,54.20660138,-2.45538821,,,TRUE
,,,,,,,,54.20658598,-2.4553937,,,TRUE
,,,,,,,,54.20657662,-2.45538298,,,TRUE
,,,,,,,,54.20663392,-2.45541587,,,TRUE
,,,,,,,,54.20665061,-2.45542694,,,TRUE
,,,,,,,,54.20665442,-2.455428225,,,TRUE
,,,,,,,,54.20666751,-2.45554556,,,TRUE
,,,,,,,,54.20667938,-2.455519635,,,TRUE
,,,,,,,,54.2066763,-2.455485375,,,TRUE
,,,,,,,,54.20667006,-2.455466585,,,TRUE
,,,,,,,,54.20666626,-2.45544604,,,TRUE
,,,,,,,,54.20664964,-2.45542591,,,TRUE
,,,,,,,,54.20664406,-2.455426005,,,TRUE
,,,,,,,,54.20663406,-2.45541337,,,TRUE
,,,,,,,,54.18728579,-2.4765455,,,TRUE
,,,,,,,,54.18730308,-2.476580315,,,TRUE
,,,,,,,,54.18732718,-2.47663225,,,TRUE
,,,,,,,,54.18734441,-2.47667195,,,TRUE
,,,,,,,,54.20025233,-2.46316151,,,TRUE
,,,,,,,,54.20023764,-2.463189915,,,TRUE
,,,,,,,,54.20026568,-2.463233065,,,TRUE
,,,,,,,,54.20024153,-2.46327348,,,TRUE
,,,,,,,,54.20023815,-2.46332897,,,TRUE
,,,,,,,,54.19937455,-2.463942035,,,TRUE
,,,,,,,,54.19937046,-2.463953945,,,TRUE
,,,,,,,,54.1993563,-2.46391116,,,TRUE
,,,,,,,,54.20018209,-2.46339662,,,TRUE
,,,,,,,,54.20015667,-2.46342625,,,TRUE
,,,,,,,,54.20007981,-2.46341786,,,TRUE
,,,,,,,,54.20005377,-2.46350231,,,TRUE
,,,,,,,,54.20003363,-2.463566145,,,TRUE
,,,,,,,,54.19993558,-2.46361451,,,TRUE
,,,,,,,,54.19988063,-2.46365756,,,TRUE
,,,,,,,,54.19980647,-2.463701075,,,TRUE
,,,,,,,,54.19976696,-2.463723885,,,TRUE
,,,,,,,,54.19967423,-2.46376827,,,TRUE
,,,,,,,,54.19965414,-2.4637986,,,TRUE
,,,,,,,,54.19959652,-2.463820635,,,TRUE
,,,,,,,,54.19946641,-2.463897925,,,TRUE
,,,,,,,,54.19937652,-2.46395141,,,TRUE
,,,,,,,,54.19932138,-2.463985645,,,TRUE
,,,,,,,,54.19929143,-2.46400628,,,TRUE
,,,,,,,,54.19927068,-2.46400782,,,TRUE
,,,,,,,,54.19924063,-2.464039105,,,TRUE
,,,,,,,,54.19923373,-2.46405678,,,TRUE
,,,,,,,,54.19916851,-2.464093815,,,TRUE
,,,,,,,,54.19917326,-2.46409751,,,TRUE
,,,,,,,,54.19809809,-2.464385085,,,TRUE
,,,,,,,,54.19814575,-2.464372855,,,TRUE
,,,,,,,,54.19823812,-2.464364045,,,TRUE
,,,,,,,,54.19823733,-2.464393055,,,TRUE
,,,,,,,,54.19825352,-2.464393855,,,TRUE
,,,,,,,,54.19827842,-2.4644354,,,TRUE
,,,,,,,,54.19830861,-2.464438375,,,TRUE
,,,,,,,,54.19833939,-2.464420785,,,TRUE
,,,,,,,,54.19839759,-2.46445794,,,TRUE
,,,,,,,,54.19841249,-2.464459835,,,TRUE
,,,,,,,,54.19843896,-2.46452318,,,TRUE
,,,,,,,,54.19851729,-2.464529265,,,TRUE
,,,,,,,,54.19856469,-2.464538445,,,TRUE
,,,,,,,,54.19860581,-2.464515245,,,TRUE
,,,,,,,,54.19861509,-2.46449934,,,TRUE
,,,,,,,,54.19866338,-2.464476015,,,TRUE
,,,,,,,,54.19866959,-2.46447067,,,TRUE
,,,,,,,,54.19875746,-2.46439819,,,TRUE
,,,,,,,,54.19878501,-2.464378225,,,TRUE
,,,,,,,,54.19880119,-2.464371415,,,TRUE
,,,,,,,,54.19885722,-2.46435939,,,TRUE
,,,,,,,,54.19890214,-2.46423944,,,TRUE
,,,,,,,,54.19890825,-2.4641886,,,TRUE
,,,,,,,,54.19894611,-2.464161835,,,TRUE
,,,,,,,,54.19897565,-2.464149635,,,TRUE
,,,,,,,,54.19904557,-2.46410893,,,TRUE
,,,,,,,,54.19912453,-2.46413046,,,TRUE
,,,,,,,,54.19915817,-2.46410276,,,TRUE
,,,,,,,,54.19916801,-2.464096605,,,TRUE
,,,,,,,,54.19917588,-2.46408947,,,TRUE
,,,,,,,,54.19792058,-2.464445365,,,TRUE
,,,,,,,,54.1979866,-2.464412305,,,TRUE
,,,,,,,,54.19804235,-2.464416815,,,TRUE
,,,,,,,,54.19806103,-2.464413035,,,TRUE
,,,,,,,,54.19807906,-2.464399235,,,TRUE
,,,,,,,,54.19809871,-2.464384865,,,TRUE
,,,,,,,,54.19760472,-2.46452546,,,TRUE
,,,,,,,,54.19765887,-2.464544385,,,TRUE
,,,,,,,,54.19766386,-2.464506505,,,TRUE
,,,,,,,,54.19769189,-2.46450664,,,TRUE
,,,,,,,,54.19778501,-2.464489635,,,TRUE
,,,,,,,,54.19784235,-2.464476855,,,TRUE
,,,,,,,,54.19787059,-2.464459135,,,TRUE
,,,,,,,,54.1979218,-2.464444925,,,TRUE
,,,,,,,,54.19692128,-2.46595789,,,TRUE
,,,,,,,,54.19694395,-2.466010995,,,TRUE
,,,,,,,,54.19694245,-2.46606619,,,TRUE
,,,,,,,,54.19686537,-2.4660125,,,TRUE
,,,,,,,,54.19691467,-2.46597587,,,TRUE
,,,,,,,,54.19692401,-2.465959425,,,TRUE
,,,,,,,,54.19693304,-2.465917055,,,TRUE
,,,,,,,,54.19697249,-2.46585552,,,TRUE
,,,,,,,,54.196964,-2.46581122,,,TRUE
,,,,,,,,54.19699033,-2.465733895,,,TRUE
,,,,,,,,54.19697879,-2.46571087,,,TRUE
,,,,,,,,54.19700605,-2.46564487,,,TRUE
,,,,,,,,54.19700565,-2.46562294,,,TRUE
,,,,,,,,54.19703525,-2.46557887,,,TRUE
,,,,,,,,54.19705758,-2.465551675,,,TRUE
,,,,,,,,54.1971,-2.465322145,,,TRUE
,,,,,,,,54.19712213,-2.46529418,,,TRUE
,,,,,,,,54.19713989,-2.46522916,,,TRUE
,,,,,,,,54.19713591,-2.46518752,,,TRUE
,,,,,,,,54.19716228,-2.4650394,,,TRUE
,,,,,,,,54.19711776,-2.465061095,,,TRUE
,,,,,,,,54.19707408,-2.465078055,,,TRUE
,,,,,,,,54.19713443,-2.465198625,,,TRUE
,,,,,,,,54.19714266,-2.46516374,,,TRUE
,,,,,,,,54.19713768,-2.46514258,,,TRUE
,,,,,,,,54.19714972,-2.46509342,,,TRUE
,,,,,,,,54.19713939,-2.465079925,,,TRUE
,,,,,,,,54.19716204,-2.46503954,,,TRUE
,,,,,,,,54.19719221,-2.465030755,,,TRUE
,,,,,,,,54.1972282,-2.46499805,,,TRUE
,,,,,,,,54.19700408,-2.46456184,,,TRUE
,,,,,,,,54.19697228,-2.46458457,,,TRUE
,,,,,,,,54.19694205,-2.464631195,,,TRUE
,,,,,,,,54.19725946,-2.46458294,,,TRUE
,,,,,,,,54.19727346,-2.464608715,,,TRUE
,,,,,,,,54.19733358,-2.46459681,,,TRUE
,,,,,,,,54.19731266,-2.46464005,,,TRUE
,,,,,,,,54.19726368,-2.464934375,,,TRUE
,,,,,,,,54.19727242,-2.464871905,,,TRUE
,,,,,,,,54.19730907,-2.46484608,,,TRUE
,,,,,,,,54.1973515,-2.464816355,,,TRUE
,,,,,,,,54.19736799,-2.464804695,,,TRUE
,,,,,,,,54.19741867,-2.464685805,,,TRUE
,,,,,,,,54.19757944,-2.464591955,,,TRUE
,,,,,,,,54.19762255,-2.46457391,,,TRUE
,,,,,,,,54.19763319,-2.46454549,,,TRUE
,,,,,,,,54.1975932,-2.464523065,,,TRUE
,,,,,,,,54.19751938,-2.46458244,,,TRUE
,,,,,,,,54.19743479,-2.46458212,,,TRUE
,,,,,,,,54.19736437,-2.464570435,,,TRUE
,,,,,,,,54.19731446,-2.4646371,,,TRUE
,,,,,,,,54.19728428,-2.46464834,,,TRUE
,,,,,,,,54.19725998,-2.46458409,,,TRUE
,,,,,,,,54.19720723,-2.4645544,,,TRUE
,,,,,,,,54.19717321,-2.46458766,,,TRUE
,,,,,,,,54.19707423,-2.464614215,,,TRUE
,,,,,,,,54.19700339,-2.464578205,,,TRUE
,,,,,,,,54.1969771,-2.464571695,,,TRUE
,,,,,,,,54.19694766,-2.464461965,,,TRUE
,,,,,,,,54.19699453,-2.46439414,,,TRUE
,,,,,,,,54.19722729,-2.46499671,,,TRUE
,,,,,,,,54.1972584,-2.464960695,,,TRUE
,,,,,,,,54.19726243,-2.464937545,,,TRUE
,,,,,,,,54.19728978,-2.464930775,,,TRUE
,,,,,,,,54.19720298,-2.464164075,,,TRUE
,,,,,,,,54.197115,-2.464235555,,,TRUE
,,,,,,,,54.19706706,-2.464246015,,,TRUE
,,,,,,,,54.19709022,-2.464341155,,,TRUE
,,,,,,,,54.19701663,-2.464382175,,,TRUE
,,,,,,,,54.19699056,-2.464396145,,,TRUE
,,,,,,,,54.19714784,-2.4641075,,,TRUE
,,,,,,,,54.1971714,-2.464143435,,,TRUE
,,,,,,,,54.19719667,-2.464142275,,,TRUE
,,,,,,,,54.19716065,-2.464033255,,,TRUE
,,,,,,,,54.20635132,-2.45273972,,,TRUE
,,,,,,,,54.20634853,-2.452723695,,,TRUE
,,,,,,,,54.20634264,-2.45262784,,,TRUE
,,,,,,,,54.20632219,-2.452575935,,,TRUE
,,,,,,,,54.2062992,-2.452562515,,,TRUE
,,,,,,,,54.2062596,-2.452526765,,,TRUE
,,,,,,,,54.18550187,-2.47284432,,,TRUE
,,,,,,,,54.18550728,-2.47285393,,,TRUE
,,,,,,,,54.18552854,-2.472872165,,,TRUE
,,,,,,,,54.18555215,-2.47287886,,,TRUE
,,,,,,,,54.18556473,-2.472914805,,,TRUE
,,,,,,,,54.18557277,-2.47291355,,,TRUE
,,,,,,,,54.18558821,-2.47291061,,,TRUE
,,,,,,,,54.20034157,-2.46261711,,,TRUE
,,,,,,,,54.20039513,-2.462527335,,,TRUE
,,,,,,,,54.20043648,-2.46246883,,,TRUE
,,,,,,,,54.20029599,-2.46297774,,,TRUE
,,,,,,,,54.20024395,-2.462817395,,,TRUE
,,,,,,,,54.20026109,-2.462770775,,,TRUE
,,,,,,,,54.20028018,-2.462755695,,,TRUE
,,,,,,,,54.20030902,-2.462726695,,,TRUE
,,,,,,,,54.20033497,-2.46270828,,,TRUE
,,,,,,,,54.20031726,-2.462734995,,,TRUE
,,,,,,,,54.2002705,-2.462766855,,,TRUE
,,,,,,,,54.20024738,-2.462705305,,,TRUE
,,,,,,,,54.20027943,-2.462697305,,,TRUE
,,,,,,,,54.20032603,-2.46263171,,,TRUE
,,,,,,,,54.20036847,-2.46262277,,,TRUE
,,,,,,,,54.20032276,-2.46261752,,,TRUE
,,,,,,,,54.20032677,-2.462611715,,,TRUE
,,,,,,,,54.20032307,-2.46262013,,,TRUE
,,,,,,,,54.20031294,-2.46263795,,,TRUE
,,,,,,,,54.20030807,-2.46262656,,,TRUE
,,,,,,,,54.20031016,-2.462623755,,,TRUE
,,,,,,,,54.20032097,-2.46261834,,,TRUE
,,,,,,,,54.20034014,-2.462644025,,,TRUE
,,,,,,,,54.20033366,-2.462673845,,,TRUE
,,,,,,,,54.20028993,-2.46270367,,,TRUE
,,,,,,,,54.18855833,-2.47303504,,,TRUE
,,,,,,,,54.18854567,-2.47302216,,,TRUE
,,,,,,,,54.18792274,-2.47455931,,,TRUE
,,,,,,,,54.18792505,-2.474551685,,,TRUE
,,,,,,,,54.18791579,-2.474542285,,,TRUE
,,,,,,,,54.20361162,-2.45811866,,,TRUE
,,,,,,,,54.20361629,-2.458147985,,,TRUE
,,,,,,,,54.20359634,-2.458156935,,,TRUE
,,,,,,,,54.20357912,-2.45814061,,,TRUE
,,,,,,,,54.203535,-2.458148265,,,TRUE
,,,,,,,,54.2035163,-2.45815533,,,TRUE
,,,,,,,,54.20350295,-2.458149715,,,TRUE
,,,,,,,,54.20350894,-2.45812569,,,TRUE
,,,,,,,,54.20350539,-2.45810462,,,TRUE
,,,,,,,,54.20349784,-2.458108635,,,TRUE
,,,,,,,,54.20348612,-2.4580668,,,TRUE
,,,,,,,,54.20350691,-2.45806751,,,TRUE
,,,,,,,,54.2034952,-2.458049535,,,TRUE
,,,,,,,,54.20353251,-2.45801509,,,TRUE
,,,,,,,,54.20353889,-2.45800669,,,TRUE
,,,,,,,,54.20356144,-2.45797178,,,TRUE
,,,,,,,,54.20356655,-2.45793598,,,TRUE
,,,,,,,,54.20356935,-2.457915035,,,TRUE
,,,,,,,,54.203511,-2.45799298,,,TRUE
,,,,,,,,54.20345864,-2.45803204,,,TRUE
,,,,,,,,54.20344389,-2.45804509,,,TRUE
,,,,,,,,54.20349077,-2.4579659,,,TRUE
,,,,,,,,54.20351719,-2.45790284,,,TRUE
,,,,,,,,54.20353498,-2.457863225,,,TRUE
,,,,,,,,54.19966973,-2.46244844,,,TRUE
,,,,,,,,54.19961223,-2.46252427,,,TRUE
,,,,,,,,54.19967,-2.46244918,,,TRUE
,,,,,,,,54.19974358,-2.46236315,,,TRUE
,,,,,,,,54.19965664,-2.462479415,,,TRUE
,,,,,,,,54.19966607,-2.462462215,,,TRUE
,,,,,,,,54.19964563,-2.462346395,,,TRUE
,,,,,,,,54.19967962,-2.46239836,,,TRUE
,,,,,,,,54.19938014,-2.46304659,,,TRUE
,,,,,,,,54.19934031,-2.46311092,,,TRUE
,,,,,,,,54.19930098,-2.46316714,,,TRUE
,,,,,,,,54.19926838,-2.463183945,,,TRUE
,,,,,,,,54.19921745,-2.46324704,,,TRUE
,,,,,,,,54.19937204,-2.46304141,,,TRUE
,,,,,,,,54.19938809,-2.46308164,,,TRUE
,,,,,,,,54.19952041,-2.463133465,,,TRUE
,,,,,,,,54.19955625,-2.46329557,,,TRUE
,,,,,,,,54.19959468,-2.463421195,,,TRUE
,,,,,,,,54.19964997,-2.463421295,,,TRUE
,,,,,,,,54.19970541,-2.46340047,,,TRUE
,,,,,,,,54.19975303,-2.46335282,,,TRUE
,,,,,,,,54.19984481,-2.46322958,,,TRUE
,,,,,,,,54.1998631,-2.46318527,,,TRUE
,,,,,,,,54.19991719,-2.463098985,,,TRUE
,,,,,,,,54.19994662,-2.463156595,,,TRUE
,,,,,,,,54.20000466,-2.46311323,,,TRUE
,,,,,,,,54.2000362,-2.46309374,,,TRUE
,,,,,,,,54.20006233,-2.463058085,,,TRUE
,,,,,,,,54.19933556,-2.463090325,,,TRUE
,,,,,,,,54.1992993,-2.463138215,,,TRUE
,,,,,,,,54.19924705,-2.463189885,,,TRUE
,,,,,,,,54.19923636,-2.4631926,,,TRUE
,,,,,,,,54.19919994,-2.46324649,,,TRUE
,,,,,,,,54.19918637,-2.463271035,,,TRUE
,,,,,,,,54.19915294,-2.463313735,,,TRUE
,,,,,,,,54.20026448,-2.46292297,,,TRUE
,,,,,,,,54.20014495,-2.46280529,,,TRUE
,,,,,,,,54.19999758,-2.46265909,,,TRUE
,,,,,,,,54.19990892,-2.46250741,,,TRUE
,,,,,,,,54.19991162,-2.46250188,,,TRUE
,,,,,,,,54.19991134,-2.4624983,,,TRUE
,,,,,,,,54.19991814,-2.46249253,,,TRUE
,,,,,,,,54.19991956,-2.46249289,,,TRUE
,,,,,,,,54.19993245,-2.462483625,,,TRUE
,,,,,,,,54.19993448,-2.46246692,,,TRUE
,,,,,,,,54.19993378,-2.462459475,,,TRUE
,,,,,,,,54.19993437,-2.462437255,,,TRUE
,,,,,,,,54.19993417,-2.4624634,,,TRUE
,,,,,,,,54.19988923,-2.46248322,,,TRUE
,,,,,,,,54.19985014,-2.46251986,,,TRUE
,,,,,,,,54.19979683,-2.4623632,,,TRUE
,,,,,,,,54.19980458,-2.462361,,,TRUE
,,,,,,,,54.19982101,-2.46232771,,,TRUE
,,,,,,,,54.19978934,-2.462248605,,,TRUE
,,,,,,,,54.19976324,-2.46225956,,,TRUE
,,,,,,,,54.19974629,-2.462295765,,,TRUE
,,,,,,,,54.19972703,-2.462257105,,,TRUE
,,,,,,,,54.19971412,-2.462269435,,,TRUE
,,,,,,,,54.19970868,-2.462262685,,,TRUE
,,,,,,,,54.19968319,-2.46228214,,,TRUE
,,,,,,,,54.1996673,-2.46227965,,,TRUE
,,,,,,,,54.19964384,-2.46230151,,,TRUE
,,,,,,,,54.19962334,-2.46228445,,,TRUE
,,,,,,,,54.19960761,-2.462327405,,,TRUE
,,,,,,,,54.19955138,-2.462375305,,,TRUE
,,,,,,,,54.19958001,-2.46247863,,,TRUE
,,,,,,,,54.19955486,-2.462519785,,,TRUE
,,,,,,,,54.19952686,-2.46256244,,,TRUE
,,,,,,,,54.19946595,-2.46268428,,,TRUE
,,,,,,,,54.19942525,-2.462880865,,,TRUE
,,,,,,,,54.1993831,-2.46299118,,,TRUE
,,,,,,,,54.19936965,-2.46303472,,,TRUE
,,,,,,,,54.19932806,-2.463101815,,,TRUE
,,,,,,,,54.19933089,-2.463095055,,,TRUE
,,,,,,,,54.19933729,-2.46310446,,,TRUE
,,,,,,,,54.19938301,-2.46303792,,,TRUE
,,,,,,,,54.19942221,-2.46299839,,,TRUE
,,,,,,,,54.19511931,-2.464345265,,,TRUE
,,,,,,,,54.1950994,-2.4643937,,,TRUE
,,,,,,,,54.19509192,-2.46452713,,,TRUE
,,,,,,,,54.19504041,-2.464571785,,,TRUE
,,,,,,,,54.19500949,-2.46482553,,,TRUE
,,,,,,,,54.19502989,-2.464965195,,,TRUE
,,,,,,,,54.19505576,-2.465106885,,,TRUE
,,,,,,,,54.19503823,-2.46518843,,,TRUE
,,,,,,,,54.19501192,-2.465263645,,,TRUE
,,,,,,,,54.19498326,-2.465359375,,,TRUE
,,,,,,,,54.19494307,-2.465443375,,,TRUE
,,,,,,,,54.19490466,-2.465481445,,,TRUE
,,,,,,,,54.19491497,-2.46558533,,,TRUE
,,,,,,,,54.19488231,-2.46558851,,,TRUE
,,,,,,,,54.1948471,-2.46555136,,,TRUE
,,,,,,,,54.19484506,-2.4656393,,,TRUE
,,,,,,,,54.19486618,-2.465703865,,,TRUE
,,,,,,,,54.19487693,-2.465734745,,,TRUE
,,,,,,,,54.19490164,-2.46573359,,,TRUE
,,,,,,,,54.19492065,-2.465793725,,,TRUE
,,,,,,,,54.1941531,-2.4637834,,,TRUE
,,,,,,,,54.19415363,-2.463925065,,,TRUE
,,,,,,,,54.1941597,-2.46398813,,,TRUE
,,,,,,,,54.19417854,-2.464034655,,,TRUE
,,,,,,,,54.19395518,-2.46379041,,,TRUE
,,,,,,,,54.19397799,-2.46377198,,,TRUE
,,,,,,,,54.19403045,-2.463688285,,,TRUE
,,,,,,,,54.19416926,-2.463803115,,,TRUE
,,,,,,,,54.1941874,-2.463711195,,,TRUE
,,,,,,,,54.19421143,-2.4636263,,,TRUE
,,,,,,,,54.19419745,-2.46358364,,,TRUE
,,,,,,,,54.19459859,-2.46424882,,,TRUE
,,,,,,,,54.19447645,-2.46415006,,,TRUE
,,,,,,,,54.19440491,-2.46422125,,,TRUE
,,,,,,,,54.19457434,-2.464230755,,,TRUE
,,,,,,,,54.19466195,-2.464301015,,,TRUE
,,,,,,,,54.19471164,-2.464290785,,,TRUE
,,,,,,,,54.19478129,-2.464111945,,,TRUE
,,,,,,,,54.19514971,-2.464360785,,,TRUE
,,,,,,,,54.19509885,-2.464238475,,,TRUE
,,,,,,,,54.19507645,-2.464181525,,,TRUE
,,,,,,,,54.19493998,-2.46420285,,,TRUE
,,,,,,,,54.19484091,-2.46415638,,,TRUE
,,,,,,,,54.19474642,-2.46414467,,,TRUE
,,,,,,,,54.19455726,-2.464241845,,,TRUE
,,,,,,,,54.19398674,-2.463780705,,,TRUE
,,,,,,,,54.19404356,-2.463671025,,,TRUE
,,,,,,,,54.19413568,-2.463763845,,,TRUE
,,,,,,,,54.19412925,-2.46398056,,,TRUE
,,,,,,,,54.19417298,-2.464126725,,,TRUE
,,,,,,,,54.19417989,-2.46423048,,,TRUE
,,,,,,,,54.19427037,-2.464354825,,,TRUE
,,,,,,,,54.19434025,-2.4642868,,,TRUE
,,,,,,,,54.19439538,-2.46418924,,,TRUE
,,,,,,,,54.1939823,-2.463761345,,,TRUE
,,,,,,,,54.19394233,-2.46377894,,,TRUE
,,,,,,,,54.19395671,-2.463790325,,,TRUE
,,,,,,,,54.19398321,-2.463787955,,,TRUE
,,,,,,,,54.19147482,-2.46507931,,,TRUE
,,,,,,,,54.1914068,-2.46507286,,,TRUE
,,,,,,,,54.1913708,-2.46509001,,,TRUE
,,,,,,,,54.19134512,-2.465127385,,,TRUE
,,,,,,,,54.19132923,-2.465179995,,,TRUE
,,,,,,,,54.19130947,-2.465227025,,,TRUE
,,,,,,,,54.1913036,-2.46531449,,,TRUE
,,,,,,,,54.19128924,-2.46540558,,,TRUE
,,,,,,,,54.19124156,-2.46545636,,,TRUE
,,,,,,,,54.19119439,-2.46549099,,,TRUE
,,,,,,,,54.19116325,-2.46552332,,,TRUE
,,,,,,,,54.19111917,-2.46557606,,,TRUE
,,,,,,,,54.1910953,-2.465580485,,,TRUE
,,,,,,,,54.19106223,-2.46560293,,,TRUE
,,,,,,,,54.19104695,-2.465646695,,,TRUE
,,,,,,,,54.19103834,-2.465681515,,,TRUE
,,,,,,,,54.19101915,-2.465703915,,,TRUE
,,,,,,,,54.19099365,-2.46572771,,,TRUE
,,,,,,,,54.19097322,-2.46575134,,,TRUE
,,,,,,,,54.19095799,-2.46577242,,,TRUE
,,,,,,,,54.19094141,-2.465813135,,,TRUE
,,,,,,,,54.19091676,-2.46582634,,,TRUE
,,,,,,,,54.1908929,-2.465849245,,,TRUE
,,,,,,,,54.19085314,-2.465850115,,,TRUE
,,,,,,,,54.19079056,-2.46587251,,,TRUE
,,,,,,,,54.1907562,-2.46588425,,,TRUE
,,,,,,,,54.19073748,-2.46589588,,,TRUE
,,,,,,,,54.19071671,-2.46589511,,,TRUE
,,,,,,,,54.19070767,-2.465898855,,,TRUE
,,,,,,,,54.1906662,-2.465870825,,,TRUE
,,,,,,,,54.19063502,-2.46585166,,,TRUE
,,,,,,,,54.19061179,-2.465813355,,,TRUE
,,,,,,,,54.19147678,-2.465079465,,,TRUE
,,,,,,,,54.19145657,-2.465082765,,,TRUE
,,,,,,,,54.19142867,-2.46508098,,,TRUE
,,,,,,,,54.19141729,-2.465066645,,,TRUE
,,,,,,,,54.19142057,-2.465042775,,,TRUE
,,,,,,,,54.1914339,-2.46503448,,,TRUE
,,,,,,,,54.19144725,-2.46501898,,,TRUE
,,,,,,,,54.19142729,-2.465019995,,,TRUE
,,,,,,,,54.19142641,-2.46499148,,,TRUE
,,,,,,,,54.19139925,-2.46496852,,,TRUE
,,,,,,,,54.19137898,-2.46493881,,,TRUE
,,,,,,,,54.19137263,-2.46490696,,,TRUE
,,,,,,,,54.19135979,-2.464854715,,,TRUE
,,,,,,,,54.19134025,-2.464841985,,,TRUE
,,,,,,,,54.19131324,-2.46482945,,,TRUE
,,,,,,,,54.19129541,-2.46480963,,,TRUE
,,,,,,,,54.19127959,-2.46478234,,,TRUE
,,,,,,,,54.19125679,-2.46472973,,,TRUE
,,,,,,,,54.19121795,-2.464694115,,,TRUE
,,,,,,,,54.19605064,-2.462338405,,,TRUE
,,,,,,,,54.19603287,-2.462260825,,,TRUE
,,,,,,,,54.19601778,-2.46220837,,,TRUE
,,,,,,,,54.19601995,-2.4621924,,,TRUE
,,,,,,,,54.19598312,-2.46219367,,,TRUE
,,,,,,,,54.19596888,-2.462211615,,,TRUE
,,,,,,,,54.19604853,-2.462339705,,,TRUE
,,,,,,,,54.19609782,-2.462354095,,,TRUE
,,,,,,,,54.19614697,-2.462412995,,,TRUE
,,,,,,,,54.19615915,-2.46241581,,,TRUE
,,,,,,,,54.19602638,-2.46259275,,,TRUE
,,,,,,,,54.19604942,-2.46247278,,,TRUE
,,,,,,,,54.19602319,-2.46240999,,,TRUE
,,,,,,,,54.1960105,-2.462337515,,,TRUE
,,,,,,,,54.19603838,-2.46230482,,,TRUE
,,,,,,,,54.19604786,-2.46233135,,,TRUE
,,,,,,,,54.19607116,-2.46227017,,,TRUE
,,,,,,,,54.1961061,-2.46222918,,,TRUE
,,,,,,,,54.19614024,-2.462129095,,,TRUE
,,,,,,,,54.19577896,-2.462594105,,,TRUE
,,,,,,,,54.19572201,-2.462654,,,TRUE
,,,,,,,,54.19570238,-2.46272829,,,TRUE
,,,,,,,,54.19567345,-2.462811375,,,TRUE
,,,,,,,,54.1957271,-2.46289859,,,TRUE
,,,,,,,,54.19572362,-2.462990355,,,TRUE
,,,,,,,,54.19611664,-2.463325395,,,TRUE
,,,,,,,,54.19611293,-2.46322093,,,TRUE
,,,,,,,,54.19612927,-2.463175375,,,TRUE
,,,,,,,,54.19611112,-2.463098305,,,TRUE
,,,,,,,,54.19608059,-2.463037155,,,TRUE
,,,,,,,,54.19610017,-2.46292875,,,TRUE
,,,,,,,,54.1960749,-2.4628362,,,TRUE
,,,,,,,,54.19609458,-2.46270593,,,TRUE
,,,,,,,,54.19608724,-2.46263787,,,TRUE
,,,,,,,,54.19605973,-2.46260437,,,TRUE
,,,,,,,,54.1960332,-2.46259508,,,TRUE
,,,,,,,,54.19601084,-2.462639235,,,TRUE
,,,,,,,,54.19594809,-2.462644935,,,TRUE
,,,,,,,,54.19589514,-2.46267154,,,TRUE
,,,,,,,,54.19588598,-2.46264846,,,TRUE
,,,,,,,,54.1958473,-2.462645435,,,TRUE
,,,,,,,,54.19577234,-2.462595665,,,TRUE
,,,,,,,,54.19563706,-2.46327732,,,TRUE
,,,,,,,,54.19561441,-2.46326663,,,TRUE
,,,,,,,,54.19551059,-2.46333334,,,TRUE
,,,,,,,,54.19543116,-2.46334992,,,TRUE
,,,,,,,,54.19536716,-2.463466145,,,TRUE
,,,,,,,,54.1952712,-2.463492245,,,TRUE
,,,,,,,,54.19523063,-2.46361706,,,TRUE
,,,,,,,,54.19523019,-2.463706605,,,TRUE
,,,,,,,,54.19520172,-2.463767165,,,TRUE
,,,,,,,,54.19519919,-2.463846895,,,TRUE
,,,,,,,,54.1951312,-2.46401443,,,TRUE
,,,,,,,,54.1950864,-2.46416729,,,TRUE
,,,,,,,,54.19513034,-2.464314615,,,TRUE
,,,,,,,,54.19516886,-2.464350015,,,TRUE
,,,,,,,,54.19530783,-2.464539155,,,TRUE
,,,,,,,,54.19543676,-2.46474195,,,TRUE
,,,,,,,,54.19611529,-2.463325545,,,TRUE
,,,,,,,,54.19611255,-2.463440645,,,TRUE
,,,,,,,,54.19610782,-2.463473245,,,TRUE
,,,,,,,,54.19606996,-2.46353094,,,TRUE
,,,,,,,,54.19597313,-2.463526665,,,TRUE
,,,,,,,,54.19587913,-2.463368495,,,TRUE
,,,,,,,,54.19584122,-2.463361645,,,TRUE
,,,,,,,,54.19577607,-2.46341077,,,TRUE
,,,,,,,,54.19570789,-2.46351196,,,TRUE
,,,,,,,,54.19565969,-2.463376455,,,TRUE
,,,,,,,,54.1956389,-2.46328033,,,TRUE
,,,,,,,,54.19562863,-2.463116635,,,TRUE
,,,,,,,,54.19660451,-2.46370547,,,TRUE
,,,,,,,,54.19654386,-2.463603675,,,TRUE
,,,,,,,,54.19648493,-2.463540495,,,TRUE
,,,,,,,,54.19631413,-2.46349034,,,TRUE
,,,,,,,,54.19626403,-2.46341745,,,TRUE
,,,,,,,,54.19611002,-2.463436045,,,TRUE
,,,,,,,,54.1951038,-2.465937005,,,TRUE
,,,,,,,,54.19513604,-2.46604925,,,TRUE
,,,,,,,,54.19512946,-2.466078615,,,TRUE
,,,,,,,,54.19507301,-2.46609958,,,TRUE
,,,,,,,,54.1950118,-2.466086795,,,TRUE
,,,,,,,,54.19493834,-2.46609903,,,TRUE
,,,,,,,,54.19492539,-2.466054195,,,TRUE
,,,,,,,,54.19492546,-2.466011765,,,TRUE
,,,,,,,,54.1949425,-2.465900455,,,TRUE
,,,,,,,,54.19519628,-2.465696455,,,TRUE
,,,,,,,,54.19512039,-2.465735155,,,TRUE
,,,,,,,,54.19511271,-2.465801995,,,TRUE
,,,,,,,,54.19512082,-2.465868395,,,TRUE
,,,,,,,,54.19509817,-2.46595105,,,TRUE
,,,,,,,,54.19510916,-2.46604566,,,TRUE
,,,,,,,,54.19513483,-2.46608757,,,TRUE
,,,,,,,,54.19519655,-2.46569436,,,TRUE
,,,,,,,,54.19524471,-2.465621595,,,TRUE
,,,,,,,,54.19530842,-2.465591995,,,TRUE
,,,,,,,,54.1953416,-2.465537905,,,TRUE
,,,,,,,,54.19537479,-2.46545561,,,TRUE
,,,,,,,,54.19537024,-2.46534944,,,TRUE
,,,,,,,,54.19538544,-2.46526524,,,TRUE
,,,,,,,,54.19541412,-2.46521788,,,TRUE
,,,,,,,,54.19546163,-2.465106585,,,TRUE
,,,,,,,,54.19547349,-2.46503586,,,TRUE
,,,,,,,,54.19547625,-2.464946385,,,TRUE
,,,,,,,,54.19548891,-2.46488124,,,TRUE
,,,,,,,,54.19546379,-2.464791205,,,TRUE
,,,,,,,,54.19546669,-2.46473401,,,TRUE
,,,,,,,,54.19543728,-2.464729355,,,TRUE
,,,,,,,,54.1954878,-2.46465793,,,TRUE
,,,,,,,,54.19546126,-2.464495045,,,TRUE
,,,,,,,,54.19545491,-2.46441473,,,TRUE
,,,,,,,,54.19550842,-2.46435297,,,TRUE
,,,,,,,,54.1955196,-2.464315915,,,TRUE
,,,,,,,,54.19554793,-2.46429536,,,TRUE
,,,,,,,,54.19560382,-2.46426985,,,TRUE
,,,,,,,,54.1956118,-2.46426254,,,TRUE
,,,,,,,,54.19257836,-2.464541635,,,TRUE
,,,,,,,,54.19260405,-2.46457321,,,TRUE
,,,,,,,,54.19266697,-2.464570995,,,TRUE
,,,,,,,,54.192714,-2.46460542,,,TRUE
,,,,,,,,54.19273912,-2.46467841,,,TRUE
,,,,,,,,54.19275085,-2.46471263,,,TRUE
,,,,,,,,54.192844,-2.46466876,,,TRUE
,,,,,,,,54.19287473,-2.464684445,,,TRUE
,,,,,,,,54.19292811,-2.464634165,,,TRUE
,,,,,,,,54.19293797,-2.464600375,,,TRUE
,,,,,,,,54.1930433,-2.46446512,,,TRUE
,,,,,,,,54.19313309,-2.464426945,,,TRUE
,,,,,,,,54.19315445,-2.46435936,,,TRUE
,,,,,,,,54.19316071,-2.4643334,,,TRUE
,,,,,,,,54.19328078,-2.46429536,,,TRUE
,,,,,,,,54.19336478,-2.46433254,,,TRUE
,,,,,,,,54.19338901,-2.464227135,,,TRUE
,,,,,,,,54.19342854,-2.46413475,,,TRUE
,,,,,,,,54.19343042,-2.46406412,,,TRUE
,,,,,,,,54.19347401,-2.463983775,,,TRUE
,,,,,,,,54.1935032,-2.46394954,,,TRUE
,,,,,,,,54.19354005,-2.46388659,,,TRUE
,,,,,,,,54.1920501,-2.46395172,,,TRUE
,,,,,,,,54.19207043,-2.46397736,,,TRUE
,,,,,,,,54.19207936,-2.46397151,,,TRUE
,,,,,,,,54.19214891,-2.463984195,,,TRUE
,,,,,,,,54.19218561,-2.4640838,,,TRUE
,,,,,,,,54.19224218,-2.464187925,,,TRUE
,,,,,,,,54.19227124,-2.464186,,,TRUE
,,,,,,,,54.19230467,-2.464179555,,,TRUE
,,,,,,,,54.19233179,-2.46420525,,,TRUE
,,,,,,,,54.19241793,-2.46422974,,,TRUE
,,,,,,,,54.19245116,-2.46434991,,,TRUE
,,,,,,,,54.19247825,-2.46443362,,,TRUE
,,,,,,,,54.1924956,-2.464432095,,,TRUE
,,,,,,,,54.19253811,-2.464455495,,,TRUE
,,,,,,,,54.1925528,-2.464514585,,,TRUE
,,,,,,,,54.19257836,-2.46454164,,,TRUE
,,,,,,,,54.19207214,-2.46523426,,,TRUE
,,,,,,,,54.19204707,-2.46529229,,,TRUE
,,,,,,,,54.19202754,-2.46536126,,,TRUE
,,,,,,,,54.19202105,-2.465173305,,,TRUE
,,,,,,,,54.19206321,-2.46519654,,,TRUE
,,,,,,,,54.19209007,-2.46526199,,,TRUE
,,,,,,,,54.19211842,-2.465276535,,,TRUE
,,,,,,,,54.19214205,-2.465254185,,,TRUE
,,,,,,,,54.19217882,-2.465227735,,,TRUE
,,,,,,,,54.19218266,-2.465233275,,,TRUE
,,,,,,,,54.19224439,-2.465214835,,,TRUE
,,,,,,,,54.19140826,-2.465072255,,,TRUE
,,,,,,,,54.1914372,-2.465037905,,,TRUE
,,,,,,,,54.19187292,-2.46520984,,,TRUE
,,,,,,,,54.1918942,-2.46520863,,,TRUE
,,,,,,,,54.19190132,-2.465214205,,,TRUE
,,,,,,,,54.19190748,-2.46521085,,,TRUE
,,,,,,,,54.19191134,-2.465210335,,,TRUE
,,,,,,,,54.19193273,-2.465211545,,,TRUE
,,,,,,,,54.19195935,-2.465190635,,,TRUE
,,,,,,,,54.19197083,-2.46519215,,,TRUE
,,,,,,,,54.19197916,-2.46518489,,,TRUE
,,,,,,,,54.19198431,-2.46518678,,,TRUE
,,,,,,,,54.19202464,-2.46517566,,,TRUE
,,,,,,,,54.19185137,-2.46521533,,,TRUE
,,,,,,,,54.1918308,-2.46522978,,,TRUE
,,,,,,,,54.1917761,-2.46526154,,,TRUE
,,,,,,,,54.19172324,-2.465239215,,,TRUE
,,,,,,,,54.19165143,-2.46513898,,,TRUE
,,,,,,,,54.1916017,-2.465092235,,,TRUE
,,,,,,,,54.19154935,-2.46494772,,,TRUE
,,,,,,,,54.19151574,-2.464950845,,,TRUE
,,,,,,,,54.19146769,-2.465076885,,,TRUE
,,,,,,,,54.1914069,-2.465073075,,,TRUE
,,,,,,,,54.19134414,-2.46513073,,,TRUE
,,,,,,,,54.19131272,-2.465289725,,,TRUE
,,,,,,,,54.19130944,-2.465340465,,,TRUE
,,,,,,,,54.19127477,-2.46543237,,,TRUE
,,,,,,,,54.19119389,-2.465507515,,,TRUE
,,,,,,,,54.19106134,-2.46564013,,,TRUE
,,,,,,,,54.19104265,-2.46571522,,,TRUE
,,,,,,,,54.19103851,-2.465712245,,,TRUE
,,,,,,,,54.19100244,-2.46574484,,,TRUE
,,,,,,,,54.19205376,-2.46392708,,,TRUE
,,,,,,,,54.19204323,-2.46397216,,,TRUE
,,,,,,,,54.19200343,-2.464140635,,,TRUE
,,,,,,,,54.19197633,-2.464214165,,,TRUE
,,,,,,,,54.19195817,-2.464298175,,,TRUE
,,,,,,,,54.1919024,-2.46433748,,,TRUE
,,,,,,,,54.19193198,-2.464500475,,,TRUE
,,,,,,,,54.1918998,-2.46459177,,,TRUE
,,,,,,,,54.19187803,-2.46469169,,,TRUE
,,,,,,,,54.19182018,-2.46476233,,,TRUE
,,,,,,,,54.19186228,-2.46488205,,,TRUE
,,,,,,,,54.19187737,-2.46503255,,,TRUE
,,,,,,,,54.19185667,-2.465067405,,,TRUE
,,,,,,,,54.19183682,-2.4651975,,,TRUE
,,,,,,,,54.19184823,-2.46523001,,,TRUE
,,,,,,,,54.19163207,-2.46312737,,,TRUE
,,,,,,,,54.19163219,-2.463193035,,,TRUE
,,,,,,,,54.19162786,-2.463261105,,,TRUE
,,,,,,,,54.19170026,-2.46345394,,,TRUE
,,,,,,,,54.19174976,-2.46343243,,,TRUE
,,,,,,,,54.19181895,-2.46349968,,,TRUE
,,,,,,,,54.19186371,-2.46346627,,,TRUE
,,,,,,,,54.19191339,-2.463440445,,,TRUE
,,,,,,,,54.19192734,-2.46344448,,,TRUE
,,,,,,,,54.19197892,-2.463463105,,,TRUE
,,,,,,,,54.19202549,-2.46352952,,,TRUE
,,,,,,,,54.19204416,-2.46359125,,,TRUE
,,,,,,,,54.19206203,-2.46364547,,,TRUE
,,,,,,,,54.19202865,-2.463772915,,,TRUE
,,,,,,,,54.1920278,-2.463824945,,,TRUE
,,,,,,,,54.19204756,-2.46395843,,,TRUE
,,,,,,,,54.19155001,-2.462719895,,,TRUE
,,,,,,,,54.19155256,-2.46273741,,,TRUE
,,,,,,,,54.1915474,-2.462803785,,,TRUE
,,,,,,,,54.19155595,-2.462862575,,,TRUE
,,,,,,,,54.19160543,-2.46294045,,,TRUE
,,,,,,,,54.19162308,-2.462966895,,,TRUE
,,,,,,,,54.19162832,-2.463022045,,,TRUE
,,,,,,,,54.19163191,-2.4631244,,,TRUE
,,,,,,,,54.19167777,-2.463149025,,,TRUE
,,,,,,,,54.19054581,-2.46527131,,,TRUE
,,,,,,,,54.19054888,-2.4651043,,,TRUE
,,,,,,,,54.19055431,-2.46502681,,,TRUE
,,,,,,,,54.19049319,-2.465051255,,,TRUE
,,,,,,,,54.19052991,-2.46499251,,,TRUE
,,,,,,,,54.19051783,-2.464930005,,,TRUE
,,,,,,,,54.19055226,-2.46490357,,,TRUE
,,,,,,,,54.19055783,-2.464880955,,,TRUE
,,,,,,,,54.19054636,-2.4648278,,,TRUE
,,,,,,,,54.19055735,-2.464801525,,,TRUE
,,,,,,,,54.19058899,-2.464744255,,,TRUE
,,,,,,,,54.19059057,-2.464716695,,,TRUE
,,,,,,,,54.19056439,-2.46469712,,,TRUE
,,,,,,,,54.19055446,-2.46466115,,,TRUE
,,,,,,,,54.19053409,-2.464631035,,,TRUE
,,,,,,,,54.19054156,-2.46457901,,,TRUE
,,,,,,,,54.19053444,-2.464539545,,,TRUE
,,,,,,,,54.19059798,-2.464422555,,,TRUE
,,,,,,,,54.19060859,-2.464358685,,,TRUE
,,,,,,,,54.19060883,-2.464297565,,,TRUE
,,,,,,,,54.19059048,-2.464292515,,,TRUE
,,,,,,,,54.19059774,-2.46422777,,,TRUE
,,,,,,,,54.1905612,-2.464219235,,,TRUE
,,,,,,,,54.19054087,-2.464239115,,,TRUE
,,,,,,,,54.19060695,-2.464362425,,,TRUE
,,,,,,,,54.19064737,-2.464328605,,,TRUE
,,,,,,,,54.19069665,-2.464267115,,,TRUE
,,,,,,,,54.19073587,-2.464250325,,,TRUE
,,,,,,,,54.19076258,-2.46418088,,,TRUE
,,,,,,,,54.19076887,-2.46415551,,,TRUE
,,,,,,,,54.19142216,-2.465053485,,,TRUE
,,,,,,,,54.19132205,-2.46507528,,,TRUE
,,,,,,,,54.19128027,-2.465125325,,,TRUE
,,,,,,,,54.19124672,-2.465254055,,,TRUE
,,,,,,,,54.19124316,-2.465356765,,,TRUE
,,,,,,,,54.19121573,-2.46541923,,,TRUE
,,,,,,,,54.19104377,-2.465584645,,,TRUE
,,,,,,,,54.1910035,-2.465610055,,,TRUE
,,,,,,,,54.19098568,-2.465700195,,,TRUE
,,,,,,,,54.19091411,-2.465769185,,,TRUE
,,,,,,,,54.19089286,-2.46581698,,,TRUE
,,,,,,,,54.19082399,-2.46585058,,,TRUE
,,,,,,,,54.19074851,-2.465876865,,,TRUE
,,,,,,,,54.19065866,-2.465908125,,,TRUE
,,,,,,,,54.19055556,-2.465845545,,,TRUE
,,,,,,,,54.19055441,-2.465822775,,,TRUE
,,,,,,,,54.19049092,-2.465774135,,,TRUE
,,,,,,,,54.19045838,-2.46587124,,,TRUE
,,,,,,,,54.19043523,-2.465904585,,,TRUE
,,,,,,,,54.19044348,-2.465934355,,,TRUE
,,,,,,,,54.19045205,-2.46590442,,,TRUE
,,,,,,,,54.19042045,-2.465895175,,,TRUE
,,,,,,,,54.19043451,-2.465815945,,,TRUE
,,,,,,,,54.19041166,-2.465797915,,,TRUE
,,,,,,,,54.19039842,-2.465782135,,,TRUE
,,,,,,,,54.19038805,-2.46576746,,,TRUE
,,,,,,,,54.19039263,-2.465745895,,,TRUE
,,,,,,,,54.19037352,-2.4657135,,,TRUE
,,,,,,,,54.19036941,-2.465637135,,,TRUE
,,,,,,,,54.19039384,-2.46561764,,,TRUE
,,,,,,,,54.19040421,-2.46557803,,,TRUE
,,,,,,,,54.19046576,-2.465520975,,,TRUE
,,,,,,,,54.19046878,-2.465459865,,,TRUE
,,,,,,,,54.19049963,-2.4653845,,,TRUE
,,,,,,,,54.19054695,-2.465272665,,,TRUE
,,,,,,,,54.19142275,-2.46506109,,,TRUE
,,,,,,,,54.19134861,-2.46506768,,,TRUE
,,,,,,,,54.19138039,-2.465035205,,,TRUE
,,,,,,,,54.19139542,-2.46503831,,,TRUE
,,,,,,,,54.19134165,-2.464974895,,,TRUE
,,,,,,,,54.19135747,-2.4648998,,,TRUE
,,,,,,,,54.19133136,-2.464801175,,,TRUE
,,,,,,,,54.19130039,-2.46479997,,,TRUE
,,,,,,,,54.19123927,-2.46473577,,,TRUE
,,,,,,,,54.19123475,-2.46469298,,,TRUE
,,,,,,,,54.1911702,-2.4646671,,,TRUE
,,,,,,,,54.19109231,-2.464662955,,,TRUE
,,,,,,,,54.19107687,-2.464664885,,,TRUE
,,,,,,,,54.1909994,-2.46460545,,,TRUE
,,,,,,,,54.19093226,-2.464670145,,,TRUE
,,,,,,,,54.1909096,-2.46458008,,,TRUE
,,,,,,,,54.19088846,-2.464540475,,,TRUE
,,,,,,,,54.19086469,-2.464461365,,,TRUE
,,,,,,,,54.19085591,-2.464422475,,,TRUE
,,,,,,,,54.19083207,-2.464403395,,,TRUE
,,,,,,,,54.19082112,-2.464358875,,,TRUE
,,,,,,,,54.19088942,-2.46429424,,,TRUE
,,,,,,,,54.19095169,-2.46424676,,,TRUE
,,,,,,,,54.19096817,-2.464247325,,,TRUE
,,,,,,,,54.19098999,-2.464212345,,,TRUE
,,,,,,,,54.19098599,-2.46419648,,,TRUE
,,,,,,,,54.19098753,-2.464181875,,,TRUE
,,,,,,,,54.19098609,-2.464159025,,,TRUE
,,,,,,,,54.19098609,-2.464159025,,,TRUE
,,,,,,,,54.19104096,-2.46413312,,,TRUE
,,,,,,,,54.19104141,-2.46414821,,,TRUE
,,,,,,,,54.19097399,-2.46412388,,,TRUE
,,,,,,,,54.19095516,-2.464137525,,,TRUE
,,,,,,,,54.19090848,-2.464106125,,,TRUE
,,,,,,,,54.19090712,-2.464074495,,,TRUE
,,,,,,,,54.19094132,-2.46404419,,,TRUE
,,,,,,,,54.19094132,-2.464044195,,,TRUE
,,,,,,,,54.19095625,-2.464027765,,,TRUE
,,,,,,,,54.19097564,-2.4640009,,,TRUE
,,,,,,,,54.19098867,-2.46402618,,,TRUE
,,,,,,,,54.19200628,-2.463951005,,,TRUE
,,,,,,,,54.19195258,-2.464154525,,,TRUE
,,,,,,,,54.19190689,-2.464283655,,,TRUE
,,,,,,,,54.19186414,-2.46432304,,,TRUE
,,,,,,,,54.19188608,-2.46448332,,,TRUE
,,,,,,,,54.19180202,-2.464709085,,,TRUE
,,,,,,,,54.19177214,-2.46473272,,,TRUE
,,,,,,,,54.1918141,-2.46489662,,,TRUE
,,,,,,,,54.19177557,-2.465214215,,,TRUE
,,,,,,,,54.19170411,-2.465243585,,,TRUE
,,,,,,,,54.19152473,-2.465034475,,,TRUE
,,,,,,,,54.19149001,-2.464926865,,,TRUE
,,,,,,,,54.19145064,-2.46496561,,,TRUE
,,,,,,,,54.19141861,-2.46505799,,,TRUE
,,,,,,,,54.19350718,-2.463897155,,,TRUE
,,,,,,,,54.19351527,-2.46394261,,,TRUE
,,,,,,,,54.19351527,-2.46394261,,,TRUE
,,,,,,,,54.19179348,-2.463539105,,,TRUE
,,,,,,,,54.1917969,-2.46354185,,,TRUE
,,,,,,,,54.19181322,-2.46357513,,,TRUE
,,,,,,,,54.19155303,-2.46275497,,,TRUE
,,,,,,,,54.19155443,-2.46288248,,,TRUE
,,,,,,,,54.19163108,-2.462955725,,,TRUE
,,,,,,,,54.19162736,-2.463125375,,,TRUE
,,,,,,,,54.19163919,-2.463324805,,,TRUE
,,,,,,,,54.19167019,-2.4634435,,,TRUE
,,,,,,,,54.19174044,-2.46344302,,,TRUE
,,,,,,,,54.19179557,-2.463523975,,,TRUE
,,,,,,,,54.19191318,-2.463447075,,,TRUE
,,,,,,,,54.19195421,-2.463454255,,,TRUE
,,,,,,,,54.19204452,-2.46360398,,,TRUE
,,,,,,,,54.19200112,-2.46381101,,,TRUE
,,,,,,,,54.19201632,-2.463926585,,,TRUE
,,,,,,,,54.1920135,-2.463949785,,,TRUE
,,,,,,,,54.19211604,-2.46398257,,,TRUE
,,,,,,,,54.19214059,-2.46409024,,,TRUE
,,,,,,,,54.19220233,-2.464198785,,,TRUE
,,,,,,,,54.19229052,-2.46421979,,,TRUE
,,,,,,,,54.19236932,-2.46423938,,,TRUE
,,,,,,,,54.19244717,-2.464456505,,,TRUE
,,,,,,,,54.19248704,-2.464450495,,,TRUE
,,,,,,,,54.19249686,-2.46451901,,,TRUE
,,,,,,,,54.19255766,-2.464581655,,,TRUE
,,,,,,,,54.19262863,-2.46460108,,,TRUE
,,,,,,,,54.19270834,-2.46473639,,,TRUE
,,,,,,,,54.19280057,-2.464695005,,,TRUE
,,,,,,,,54.19281731,-2.464702505,,,TRUE
,,,,,,,,54.19295622,-2.46455676,,,TRUE
,,,,,,,,54.19300572,-2.464486325,,,TRUE
,,,,,,,,54.19309138,-2.464446995,,,TRUE
,,,,,,,,54.19313098,-2.464351975,,,TRUE
,,,,,,,,54.19326323,-2.464341585,,,TRUE
,,,,,,,,54.19330159,-2.464376605,,,TRUE
,,,,,,,,54.19337746,-2.46416131,,,TRUE
,,,,,,,,54.19339148,-2.46404499,,,TRUE
,,,,,,,,54.19350319,-2.463892185,,,TRUE
,,,,,,,,54.19354736,-2.463723175,,,TRUE
,,,,,,,,54.19361751,-2.463764595,,,TRUE
,,,,,,,,54.19364447,-2.463751565,,,TRUE
,,,,,,,,54.19375017,-2.463852455,,,TRUE
,,,,,,,,54.19380038,-2.463839595,,,TRUE
,,,,,,,,54.19387396,-2.463881955,,,TRUE
,,,,,,,,54.19392577,-2.463840685,,,TRUE
,,,,,,,,54.19395378,-2.463779285,,,TRUE
,,,,,,,,54.21610522,-2.518430965,,,TRUE
,,,,,,,,54.21610471,-2.51842344,,,TRUE
,,,,,,,,54.21610159,-2.518424055,,,TRUE
,,,,,,,,54.21625081,-2.51808629,,,TRUE
,,,,,,,,54.21611401,-2.51852663,,,TRUE
,,,,,,,,54.21608835,-2.518533915,,,TRUE
,,,,,,,,54.21603606,-2.51852757,,,TRUE
,,,,,,,,54.21603569,-2.5185682,,,TRUE
,,,,,,,,54.21601806,-2.51859859,,,TRUE
,,,,,,,,54.21605793,-2.51860615,,,TRUE
,,,,,,,,54.21618687,-2.518626005,,,TRUE
,,,,,,,,54.21617595,-2.518592525,,,TRUE
,,,,,,,,54.21617917,-2.518573395,,,TRUE
,,,,,,,,54.21616538,-2.518552985,,,TRUE
,,,,,,,,54.21617431,-2.518533715,,,TRUE
,,,,,,,,54.21618546,-2.518663645,,,TRUE
,,,,,,,,54.21622061,-2.518688075,,,TRUE
,,,,,,,,54.21623831,-2.51867857,,,TRUE
,,,,,,,,54.21620946,-2.518798965,,,TRUE
,,,,,,,,54.21617505,-2.518805765,,,TRUE
,,,,,,,,54.21615424,-2.51880483,,,TRUE
,,,,,,,,54.21612866,-2.51878701,,,TRUE
,,,,,,,,54.21619514,-2.518810025,,,TRUE
,,,,,,,,54.2161904,-2.518840845,,,TRUE
,,,,,,,,54.21616566,-2.518883105,,,TRUE
,,,,,,,,54.2162016,-2.5189125,,,TRUE
,,,,,,,,54.21624713,-2.51883054,,,TRUE
,,,,,,,,54.21627898,-2.5188314,,,TRUE
,,,,,,,,54.21632783,-2.51886253,,,TRUE
,,,,,,,,54.21634873,-2.51887017,,,TRUE
,,,,,,,,54.21638094,-2.51884205,,,TRUE
,,,,,,,,54.21636602,-2.51880062,,,TRUE
,,,,,,,,54.21636076,-2.51885238,,,TRUE
,,,,,,,,54.21632747,-2.518811945,,,TRUE
,,,,,,,,54.21632186,-2.51876617,,,TRUE
,,,,,,,,54.21636562,-2.518802015,,,TRUE
,,,,,,,,54.21631979,-2.51877025,,,TRUE
,,,,,,,,54.21629268,-2.51869756,,,TRUE
,,,,,,,,54.21623874,-2.51868,,,TRUE
,,,,,,,,54.21618734,-2.518657005,,,TRUE
,,,,,,,,54.21614881,-2.51862736,,,TRUE
,,,,,,,,54.21609682,-2.518596875,,,TRUE
,,,,,,,,54.21609439,-2.51857139,,,TRUE
,,,,,,,,54.21609612,-2.518572885,,,TRUE
,,,,,,,,54.21607376,-2.51857229,,,TRUE
,,,,,,,,54.21607688,-2.51858809,,,TRUE
,,,,,,,,54.21609626,-2.51861135,,,TRUE
,,,,,,,,54.2161121,-2.518529565,,,TRUE
,,,,,,,,54.21614707,-2.51854022,,,TRUE
,,,,,,,,54.21621945,-2.51853717,,,TRUE
,,,,,,,,54.21627916,-2.518536905,,,TRUE
,,,,,,,,54.21629433,-2.51844453,,,TRUE
,,,,,,,,54.21633469,-2.51838232,,,TRUE
,,,,,,,,54.21631368,-2.51817488,,,TRUE
,,,,,,,,54.21633236,-2.518115255,,,TRUE
,,,,,,,,54.21627798,-2.517978735,,,TRUE
,,,,,,,,54.21623584,-2.517962635,,,TRUE
,,,,,,,,54.21628058,-2.51777989,,,TRUE
,,,,,,,,54.21629699,-2.517784495,,,TRUE
,,,,,,,,54.21634246,-2.517712005,,,TRUE
,,,,,,,,54.2163459,-2.51768323,,,TRUE
,,,,,,,,54.21635612,-2.51761374,,,TRUE
,,,,,,,,54.2147826,-2.523408395,,,TRUE
,,,,,,,,54.21475365,-2.523276665,,,TRUE
,,,,,,,,54.21477814,-2.523235365,,,TRUE
,,,,,,,,54.21474126,-2.523200855,,,TRUE
,,,,,,,,54.21481635,-2.52339809,,,TRUE
,,,,,,,,54.21486588,-2.52339638,,,TRUE
,,,,,,,,54.21489781,-2.52337044,,,TRUE
,,,,,,,,54.21463648,-2.523591325,,,TRUE
,,,,,,,,54.21458016,-2.52366713,,,TRUE
,,,,,,,,54.21462146,-2.5236767,,,TRUE
,,,,,,,,54.21445928,-2.52364597,,,TRUE
,,,,,,,,54.21462146,-2.5236767,,,TRUE
,,,,,,,,54.2142382,-2.523581225,,,TRUE
,,,,,,,,54.21425632,-2.523319545,,,TRUE
,,,,,,,,54.21432285,-2.52319219,,,TRUE
,,,,,,,,54.21438543,-2.522997625,,,TRUE
,,,,,,,,54.21452168,-2.52277102,,,TRUE
,,,,,,,,54.21462975,-2.5226149,,,TRUE
,,,,,,,,54.21449315,-2.522427935,,,TRUE
,,,,,,,,54.21460864,-2.52240624,,,TRUE
,,,,,,,,54.21460864,-2.52240624,,,TRUE
,,,,,,,,54.21467486,-2.52236374,,,TRUE
,,,,,,,,54.21473828,-2.5223562,,,TRUE
,,,,,,,,54.21475029,-2.52233347,,,TRUE
,,,,,,,,54.2147463,-2.522329925,,,TRUE
,,,,,,,,54.21475456,-2.52229663,,,TRUE
,,,,,,,,54.21474094,-2.52232498,,,TRUE
,,,,,,,,54.21477208,-2.522279325,,,TRUE
,,,,,,,,54.2147512,-2.522221175,,,TRUE
,,,,,,,,54.21480183,-2.5222111,,,TRUE
,,,,,,,,54.21479916,-2.52218305,,,TRUE
,,,,,,,,54.21472975,-2.52213561,,,TRUE
,,,,,,,,54.21483305,-2.52221147,,,TRUE
,,,,,,,,54.21481176,-2.52226933,,,TRUE
,,,,,,,,54.21484594,-2.52227629,,,TRUE
,,,,,,,,54.21484583,-2.52228012,,,TRUE
,,,,,,,,54.21477803,-2.522349495,,,TRUE
,,,,,,,,54.21487423,-2.522195955,,,TRUE
,,,,,,,,54.21488892,-2.52218876,,,TRUE
,,,,,,,,54.21226639,-2.519840045,,,TRUE
,,,,,,,,54.21222365,-2.519815595,,,TRUE
,,,,,,,,54.2122229,-2.519843175,,,TRUE
,,,,,,,,54.21224827,-2.51985063,,,TRUE
,,,,,,,,54.21219011,-2.519847685,,,TRUE
,,,,,,,,54.2121595,-2.519853285,,,TRUE
,,,,,,,,54.21209701,-2.519830215,,,TRUE
,,,,,,,,54.21227007,-2.51986707,,,TRUE
,,,,,,,,54.2123062,-2.51985075,,,TRUE
,,,,,,,,54.21231599,-2.51989538,,,TRUE
,,,,,,,,54.21231756,-2.51993504,,,TRUE
,,,,,,,,54.21234727,-2.51993109,,,TRUE
,,,,,,,,54.21234648,-2.519953465,,,TRUE
,,,,,,,,54.21233483,-2.51995922,,,TRUE
,,,,,,,,54.21230932,-2.519968465,,,TRUE
,,,,,,,,54.21229674,-2.52000634,,,TRUE
,,,,,,,,54.2122789,-2.52002487,,,TRUE
,,,,,,,,54.21225664,-2.520023,,,TRUE
,,,,,,,,54.21224679,-2.520020445,,,TRUE
,,,,,,,,54.21223024,-2.520009075,,,TRUE
,,,,,,,,54.21220029,-2.520007435,,,TRUE
,,,,,,,,54.21217309,-2.519997765,,,TRUE
,,,,,,,,54.21214163,-2.519983355,,,TRUE
,,,,,,,,54.21212505,-2.52002248,,,TRUE
,,,,,,,,54.21212872,-2.52004023,,,TRUE
,,,,,,,,54.21215966,-2.520069505,,,TRUE
,,,,,,,,54.21214996,-2.520097205,,,TRUE
,,,,,,,,54.21216027,-2.520152025,,,TRUE
,,,,,,,,54.21218365,-2.520196685,,,TRUE
,,,,,,,,54.21218969,-2.520224035,,,TRUE
,,,,,,,,54.21218562,-2.52026217,,,TRUE
,,,,,,,,54.21221069,-2.52031808,,,TRUE
,,,,,,,,54.21308063,-2.519166375,,,TRUE
,,,,,,,,54.21310043,-2.519153245,,,TRUE
,,,,,,,,54.21310828,-2.519174465,,,TRUE
,,,,,,,,54.21313703,-2.519209025,,,TRUE
,,,,,,,,54.21314937,-2.519215595,,,TRUE
,,,,,,,,54.21319436,-2.519249645,,,TRUE
,,,,,,,,54.21321025,-2.519260955,,,TRUE
,,,,,,,,54.21326776,-2.519302265,,,TRUE
,,,,,,,,54.21333579,-2.51931749,,,TRUE
,,,,,,,,54.21330975,-2.51934613,,,TRUE
,,,,,,,,54.21335701,-2.51932783,,,TRUE
,,,,,,,,54.21338518,-2.51931235,,,TRUE
,,,,,,,,54.2133984,-2.51932301,,,TRUE
,,,,,,,,54.21321299,-2.51924486,,,TRUE
,,,,,,,,54.21316606,-2.519193885,,,TRUE
,,,,,,,,54.21304576,-2.519219005,,,TRUE
,,,,,,,,54.2130097,-2.519217715,,,TRUE
,,,,,,,,54.2129987,-2.519245655,,,TRUE
,,,,,,,,54.21304908,-2.519198345,,,TRUE
,,,,,,,,54.21304035,-2.51918948,,,TRUE
,,,,,,,,54.21303068,-2.519202015,,,TRUE
,,,,,,,,54.21307005,-2.519202105,,,TRUE
,,,,,,,,54.21307647,-2.519172565,,,TRUE
,,,,,,,,54.21301136,-2.51916345,,,TRUE
,,,,,,,,54.21294538,-2.519133615,,,TRUE
,,,,,,,,54.21292373,-2.51910971,,,TRUE
,,,,,,,,54.21289833,-2.519078155,,,TRUE
,,,,,,,,54.2128968,-2.519080965,,,TRUE
,,,,,,,,54.21296597,-2.51910022,,,TRUE
,,,,,,,,54.21300823,-2.519041885,,,TRUE
,,,,,,,,54.21300877,-2.51903978,,,TRUE
,,,,,,,,54.21303233,-2.519062545,,,TRUE
,,,,,,,,54.21303214,-2.519063245,,,TRUE
,,,,,,,,54.21305322,-2.519073445,,,TRUE
,,,,,,,,54.2130754,-2.519074045,,,TRUE
,,,,,,,,54.21306634,-2.519084785,,,TRUE
,,,,,,,,54.21305024,-2.51906204,,,TRUE
,,,,,,,,54.21304273,-2.51907367,,,TRUE
,,,,,,,,54.21303021,-2.51906811,,,TRUE
,,,,,,,,54.21304371,-2.519072145,,,TRUE
,,,,,,,,54.21305804,-2.519087505,,,TRUE
,,,,,,,,54.21309048,-2.51917863,,,TRUE
,,,,,,,,54.21310852,-2.51923023,,,TRUE
,,,,,,,,54.21310643,-2.519257945,,,TRUE
,,,,,,,,54.2128937,-2.51929959,,,TRUE
,,,,,,,,54.21287529,-2.51929216,,,TRUE
,,,,,,,,54.21286311,-2.51929399,,,TRUE
,,,,,,,,54.21283466,-2.51929823,,,TRUE
,,,,,,,,54.21278209,-2.51929127,,,TRUE
,,,,,,,,54.21275438,-2.51928057,,,TRUE
,,,,,,,,54.21273751,-2.51931161,,,TRUE
,,,,,,,,54.21272841,-2.519303495,,,TRUE
,,,,,,,,54.21270791,-2.519285475,,,TRUE
,,,,,,,,54.21267961,-2.51925903,,,TRUE
,,,,,,,,54.21274082,-2.519321275,,,TRUE
,,,,,,,,54.21273614,-2.519331205,,,TRUE
,,,,,,,,54.21268878,-2.51930817,,,TRUE
,,,,,,,,54.21265454,-2.519284605,,,TRUE
,,,,,,,,54.21275238,-2.519287385,,,TRUE
,,,,,,,,54.2127579,-2.519238235,,,TRUE
,,,,,,,,54.21284945,-2.520027975,,,TRUE
,,,,,,,,54.21275069,-2.520032435,,,TRUE
,,,,,,,,54.21285257,-2.519885545,,,TRUE
,,,,,,,,54.21267521,-2.520047155,,,TRUE
,,,,,,,,54.21313096,-2.519291795,,,TRUE
,,,,,,,,54.21311212,-2.519246075,,,TRUE
,,,,,,,,54.2130945,-2.5192452,,,TRUE
,,,,,,,,54.2130792,-2.51923486,,,TRUE
,,,,,,,,54.21305196,-2.51922117,,,TRUE
,,,,,,,,54.21298652,-2.51924984,,,TRUE
,,,,,,,,54.21293627,-2.519265695,,,TRUE
,,,,,,,,54.21292029,-2.5192694,,,TRUE
,,,,,,,,54.21290478,-2.51927149,,,TRUE
,,,,,,,,54.21282705,-2.51926654,,,TRUE
,,,,,,,,54.21276751,-2.519260525,,,TRUE
,,,,,,,,54.21276189,-2.519258285,,,TRUE
,,,,,,,,54.21275834,-2.51923828,,,TRUE
,,,,,,,,54.21320369,-2.519395575,,,TRUE
,,,,,,,,54.21320501,-2.51938008,,,TRUE
,,,,,,,,54.21320748,-2.51936179,,,TRUE
,,,,,,,,54.21325363,-2.51939085,,,TRUE
,,,,,,,,54.21330437,-2.51940604,,,TRUE
,,,,,,,,54.21336231,-2.519412225,,,TRUE
,,,,,,,,54.21345567,-2.519466905,,,TRUE
,,,,,,,,54.21319142,-2.51933249,,,TRUE
,,,,,,,,54.21316742,-2.51929411,,,TRUE
,,,,,,,,54.21312991,-2.51929091,,,TRUE
,,,,,,,,54.21307919,-2.520271605,,,TRUE
,,,,,,,,54.21309822,-2.520344485,,,TRUE
,,,,,,,,54.21306943,-2.520377005,,,TRUE
,,,,,,,,54.21307397,-2.520411225,,,TRUE
,,,,,,,,54.21305354,-2.520413445,,,TRUE
,,,,,,,,54.21303998,-2.52042441,,,TRUE
,,,,,,,,54.21303672,-2.520457555,,,TRUE
,,,,,,,,54.21313376,-2.52037795,,,TRUE
,,,,,,,,54.21321034,-2.520428685,,,TRUE
,,,,,,,,54.21310723,-2.520246935,,,TRUE
,,,,,,,,54.21311086,-2.520203145,,,TRUE
,,,,,,,,54.21313203,-2.520195395,,,TRUE
,,,,,,,,54.21313367,-2.52019712,,,TRUE
,,,,,,,,54.21314796,-2.52022367,,,TRUE
,,,,,,,,54.21317324,-2.5202442,,,TRUE
,,,,,,,,54.21315017,-2.520176435,,,TRUE
,,,,,,,,54.21315923,-2.520181475,,,TRUE
,,,,,,,,54.21316421,-2.520159505,,,TRUE
,,,,,,,,54.21318233,-2.52015179,,,TRUE
,,,,,,,,54.2131975,-2.52016818,,,TRUE
,,,,,,,,54.21321534,-2.520110405,,,TRUE
,,,,,,,,54.21323209,-2.52009478,,,TRUE
,,,,,,,,54.2132288,-2.52006301,,,TRUE
,,,,,,,,54.21324548,-2.52005655,,,TRUE
,,,,,,,,54.21324289,-2.52003439,,,TRUE
,,,,,,,,54.21325683,-2.52001102,,,TRUE
,,,,,,,,54.21325545,-2.519971025,,,TRUE
,,,,,,,,54.21330304,-2.519996775,,,TRUE
,,,,,,,,54.21325508,-2.519983355,,,TRUE
,,,,,,,,54.21324985,-2.51990677,,,TRUE
,,,,,,,,54.21322896,-2.51991874,,,TRUE
,,,,,,,,54.21322373,-2.51985917,,,TRUE
,,,,,,,,54.21321829,-2.519781805,,,TRUE
,,,,,,,,54.21321968,-2.51976475,,,TRUE
,,,,,,,,54.21323937,-2.51978847,,,TRUE
,,,,,,,,54.21323787,-2.51981008,,,TRUE
,,,,,,,,54.21324396,-2.51981769,,,TRUE
,,,,,,,,54.21325425,-2.51988109,,,TRUE
,,,,,,,,54.21321738,-2.519720305,,,TRUE
